"Name","Cuisine","Hours","Price","Good.For","Location","Address","Postal.Code","Lat","Long"
"5 ON 25 五悦亭","Chinese, Seafood, Vegetarian Friendly, Local, Dim Sum","Tue-Sun: 12-2:30pm, 6-10:30pm (Last Order: 9:45pm)Closed Monday","$$$","Business Meetings, City Views, Casual Dining, Drinks","Bugis","5 Fraser StreetLevel 25Andaz SingaporeSingapore (189354) ","189354","1.29915739776463","103.858020324447"
"1 Tyrwhitt Bistro Bar","American, Bar, Italian, Vegetarian Friendly","Wed-Mon: 11:30am-12amClosed Tuesday","$$","Al Fresco, Business Meetings, Casual Dining, Kid Friendly, Drinks, Private Functions, Large Parties (16+)","Jalan Besar, Lavender","1 Tyrwhitt RoadSingapore (207522) ","207522","1.3090764177739","103.858266200923"
"1-Altitude","Australian, Fusion, Burgers","Mon-Fri: 5:30-10:30pmSat: 4:30-10:30pmSun: 3-10:30pm","$$$$","Al Fresco, Business Meetings, City Views, Fine Dining, Casual Dining, Kid Friendly, Drinks, Private Functions, Quiet Dinner, Romantic Dates, Large Parties (16+)","Raffles Place","1 Raffles PlaceLevel 63Singapore (048616) ","048616","1.28424656418639","103.851050382307"
"1-V:U – Restaurant and Day Club","Modern Asian","RestaurantTue-Sat: 6:30-10:30am, 6-10pmSun: 6:30-10:30am, 12-3pm, 6-10pmClosed MondayDay Club & Rooftop barMon-Sun: 11am-1am","$$$","Al Fresco, Business Meetings, Casual Dining, Drinks, Private Functions, Romantic Dates","Sentosa","10 Artillery AveLevel 7The Outpost HotelSingapore (099951)","099951","1.25222767333077","103.819973629171"
"10 SCOTTS","Bar, Buffet, Japanese, Seafood, British","Mon-Sun: 12-5pm, 6-10pm","$$$","Business Meetings, Casual Dining, Kid Friendly, Drinks, Private Functions","Orchard","10 Scotts RoadLobby LevelGrand Hyatt SingaporeSingapore (228211) ","228211","1.30637300291267","103.833257176622"
"13% Wine Bistro @ Telok Ayer","Modern European","Mon-Fri: 12-11pmSat: 5-11pmClosed Sunday","$$$","Casual Dining, Drinks, Private Functions","Telok Ayer","123A Telok Ayer StreetSingapore (068592) ","068592","1.28116562260763","103.8480616546"
"15 Stamford by Alvin Leung (The Capitol Kempinski Hotel Singapore)","Modern Asian","Mon-Sun: 12-3pm, 6-10:30pm","$$$","Business Meetings, Fine Dining, Private Functions, Romantic Dates, Large Parties (16+)","City Hall","15 Stamford RoadThe Capitol Kempinski HotelSingapore (178906) ","178906","1.29344480207133","103.85153211558"
"1927","Bar, Modern European, Fusion","Mon-Sun & PH: 2-10:30pm","$$$","City Views, Drinks, Private Functions, Large Parties (16+)","Raffles Place","35 Robinson RoadSingapore (068876) ","068876","1.27992197150836","103.849654790724"
"21 on Rajah","Buffet, Vegetarian Friendly, Local, Halal Certified","Mon-Sun: 6am-10:30pm","$$","Business Meetings, Casual Dining, Kid Friendly, Private Functions","Novena, Balestier","1 Jalan RajahSingapore (329133) ","329133","1.32699075133711","103.847403697576"
"2D1N Soju Bang","Korean, Vegetarian Friendly, BBQ","Tue-Sun: 11:30am-2:30pm, 5pm-12amClosed Monday","$$","Casual Dining, Kid Friendly, Drinks, Private Functions, Large Parties (16+)","Tanjong Pagar","44/46 Tanjong Pagar RoadSingapore (088467) ","088467","1.27934860855414","103.843652058129"
"49 Seats","Fusion, Local","Mon-Thu: 11:30am-3:30pm, 5:30-11:30pmFri-Sun: 11:30am-4pm, 5-11:30pm","$$","Business Meetings, Casual Dining, Kid Friendly, Large Parties (16+)","Orchard","176 Orchard Road#01-49The CentrepointSingapore (238843) ","238843","1.30151446722773","103.840054426935"
"5 Senses Bistro (Funan Mall)","Modern European, French, Fusion, Seafood, Cafe","Mon-Sun: 11am-9pm","$$","Al Fresco, Business Meetings, City Views, Casual Dining, Kid Friendly, Drinks, Private Functions","City Hall","107 North Bridge Road#02-17Funan MallSingapore (179105) ","179105","1.29124400604241","103.849984790048"
"5 Senses Bistro (The Star Vista)","Bar, Japanese, International, Seafood","Mon-Sun: 11am-9pm","$$","Business Meetings, Fine Dining, Casual Dining, Drinks, Private Functions, Quiet Dinner","Buona Vista","1 Vista Exchange Green#02-21The Star VistaSingapore (138617) ","138617","1.30695082420353","103.788287276561"
"665°F","Steakhouse","Mon, Wed-Sat: 12-2:30pm, 6-10:30pmTue & Sun: 6-10:30pm","$$$","Business Meetings, City Views, Fine Dining, Casual Dining, Private Functions, Quiet Dinner, Romantic Dates","Bugis","5 Fraser StreetLevel 38Andaz SingaporeSingapore (189354) ","189354","1.29915739776463","103.858020324447"
"6ix 6ix 六六","Bar, Chinese, Seafood, Vegetarian Friendly, BBQ","Mon-Sun: 11am-4am","$$$","Al Fresco, Business Meetings, Casual Dining, Drinks, Private Functions","Orchard","23 Cuppage RoadSingapore (229453)","229453","1.30193459271821","103.840217694269"
"6ixty 7even Restaurant & Bar","Modern European, Fusion","Mon-Sat: 3-10:30pmClosed Sunday","$$$$","Business Meetings, Fine Dining, Casual Dining, Drinks, Private Functions, Quiet Dinner, Romantic Dates","Tanjong Pagar","67 Neil RoadSingapore (088898) ","088898","1.27929387507147","103.842357127969"
"7th Heaven KTV & Cafe","Bar, Fusion, Cafe","Tue-Sat: 11am-11pm Sun: 10am-10pm Closed Monday","$$","Casual Dining, Drinks, Private Functions, Large Parties (16+)","Tampines","1/A Tampines Street 92#03-02SAFRA TampinesSingapore (528882) ","528882","1.34470946550556","103.941746452841"
"8 Korean BBQ (Shaw Centre)","Korean, BBQ","Mon-Fri: 11:30am-2:30pm, 5:30-10:30pmSat-Sun: 1130am-10:30pm","$$","Casual Dining, Kid Friendly, Drinks, Large Parties (16+)","Orchard","1 Scotts Road#04-20/21Shaw CentreSingapore (228208) ","228208","1.30611334628277","103.83197058154"
"8 Korean BBQ (The Central)","Korean, BBQ","Mon-Sun: 11:30am-2:30pm, 5:30-10:30pm","$$$","Casual Dining, Drinks, Private Functions","Clarke Quay","6 Eu Tong Sen Street#02-79/90The CentralSingapore (059817) ","059817","1.2888737988701","103.846797382693"
"9th ave.","Fusion, Cafe","Mon-Fri: 8am-4:30pmClosed Saturday, Sunday & PH","$$","Casual Dining","Woodlands","43 Woodlands Avenue 9SIT@RPSingapore (737729) ","737729","1.44427220470164","103.783638071171"
"Aburi-EN (Causeway Point)","Japanese","Mon-Sun: 11am-10pm","$$","Casual Dining, Drinks","Woodlands","1 Woodlands Square#02-09BCauseway PointSingapore (738099) ","738099","1.43592702612215","103.786047454862"
"Aburi-EN (Changi City Point)","Japanese","Mon-Sun: 11am-10pm","$$","Business Meetings, Casual Dining, Kid Friendly, Drinks","Changi","5 Changi Business Park Central 1#01-36 Changi City PointSingapore (486038) ","486038","1.33408359331373","103.962946083391"
"Aburi-EN (Jem)","Japanese","Mon-Sun: 11am-10pm","$$","Casual Dining, Drinks","Jurong","50 Jurong Gateway Road#01-04JemSingapore (608549) ","608549","1.3325523295069","103.743262234833"
"Aburi-EN (JEWEL Changi Airport)","Japanese","Mon-Sun: 11am-10pm","$$","Business Meetings, Casual Dining, Kid Friendly","Changi","78 Airport Boulevard #B2-233 JEWEL Changi Airport Singapore (819666) ","819666","1.35993782064432","103.990002942162"
"Aburi-EN (Nex)","Japanese","Mon-Sun: 11am-10pm","$$","Casual Dining, Drinks","Serangoon","23 Serangoon Central#01-63/64/65NEXSingapore (556083) ","556083","1.35088882151724","103.87211567247"
"Aburi-EN (Novena)","Japanese","Mon-Sun: 11am-10pm","$$","Casual Dining, Drinks","Novena","238 Thomson Road#01-89Novena SquareSingapore (307683)","307683","1.32045851808392","103.843840430508"
"Aburi-EN (NTP)","Japanese","Mon-Sun: 11am-10pm","$$","Casual Dining, Kid Friendly","Yishun","930 Yishun Ave 2#01-47Northpoint CitySingapore (769098) ","769098","1.42964377363773","103.835803487655"
"Aburi-EN (Orchard Central)","Japanese","Mon-Sun: 11am-10pm","$$","Casual Dining, Drinks","Orchard","181 Orchard Road#01-16Orchard CentralSingapore (238896) ","238896","1.30083890839245","103.839434733899"
"Aburi-EN (Scotts)","Japanese","Mon-Sun: 11am-10pm","$$","Casual Dining, Drinks","Orchard","350 Orchard Road Shaw House#01-K1Isetan ScottsSingapore (238868) ","238868","1.30580981580562","103.831507365654"
"Aburi-EN (Suntec City)","Japanese","Mon-Sun: 11am-10pm","$$","Casual Dining, Drinks","Promenade","3 Temasek Boulevard#B1-121Suntec City MallSingapore (038983)","038983","1.29432416524256","103.860371993025"
"Aburi-EN (Tanjong Pagar)","Japanese","Mon-Sun: 11am-10pm","$$","Casual Dining, Drinks","Tanjong Pagar","1 Wallich Street#B2-09Guoco TowerSingapore (078884) ","078884","1.27672492702287","103.845155395387"
"Aburi-EN (Vivo City)","Japanese","Mon-Sun: 11am-10pm","$$","Casual Dining, Drinks","Harbourfront","1 Habourfront Walk#01-159/160VivocitySingapore (098585) ","098585","1.26427054261311","103.822476140813"
"Aburiya (Boat Quay)","Bar, Japanese, Burgers, BBQ","Mon-Sun: 6-10pm","$$$$","Casual Dining, Kid Friendly, Romantic Dates","Boat Quay","79 Boat QuaySingapore (049867) ","049867","1.28834088120836","103.849164389373"
"abV@Southbridge","American, Bar, Modern European, International, Steakhouse, Cafe, Burgers","Mon-Sun: 11am-10:30pm","$$$","Al Fresco, Business Meetings, City Views, Casual Dining, Drinks","Chinatown","210 South Bridge RoadThe Southbridge HotelSingapore (058759) ","058759","1.2833972658063","103.845702273218"
"Acid Bar","American, Bar, Burgers, Modern Asian","Mon-Sun: 3-10:30pm","$$","Al Fresco, Business Meetings, Casual Dining, Drinks, Private Functions","Orchard","180 Orchard RoadSingapore (238846) ","238846","1.30148487514509","103.839139972614"
"Acoustics Coffee Bar","All-Day Breakfast, Cafe","Sun-Thu: 8:30am-5:30pmFri-Sat: 8:30am-9:30pm","$$","Al Fresco, Casual Dining, Drinks, Pet Friendly","Chinatown, Outram","61 Neil RoadSingapore (088895) ","088895","1.27939924167712","103.842457042503"
"Acqua e Farina","Italian, Vegetarian Friendly","Sun-Thu & PH: 11:30am-2:30pm, 5:45-10pmFri-Sat: 11:30am-2:30pm, 5:45-10:15pmClosed Monday","$$$","Al Fresco, Business Meetings, Casual Dining, Kid Friendly, Private Functions","Bukit Timah","400 Upper Bukit Timah RoadSingapore (678050) ","678050","1.35813136149796","103.767849779267"
"ADDA","Bar, Indian, Fusion","Mon-Sun: 12-3pm, 6-10:30pm","$$","Al Fresco, Business Meetings, Casual Dining, Kid Friendly, Drinks, Private Functions, Quiet Dinner, Romantic Dates","Bugis","7500E Beach Road#01-201Diners Club BuildingSingapore (199595) ","199595",NA,NA
"Aether House","French","Mon-Sat: 11am-10:30pmClosed Sunday & PH","$$$$","Business Meetings, Casual Dining, Drinks, Private Functions, Romantic Dates","Telok Ayer","35 Robinson Road#01-05/06/07SO SofitelSingapore (068876) ","068876","1.27992197150836","103.849654790724"
"Afterglow","Vegetarian","Mon-Sat: 12-10pmClosed Sunday","$$$","Al Fresco, Casual Dining, Drinks, Private Functions, Quiet Dinner","Chinatown, Keong Saik","24 Keong Saik RoadSingapore (089131) ","089131","1.28008872721847","103.84167635477"
"Ah Hoi's Kitchen","Chinese, Seafood, Local, Zi Char","Fri-Sun: 6-10:30pmMon-Thu: Closed28 Jan to 15 Feb 2022 (Excluding 8-10 Feb): 6-10:30pm","$$","Al Fresco, Casual Dining, Kid Friendly","Orchard, Tanglin","1A Cuscaden RoadLevel 4Hotel Jen Tanglin SingaporeSingapore (249716) ","249716","1.30427053823352","103.823912359581"
"Akira Back (JW Marriott Singapore South Beach)","Japanese, Korean, Vegetarian Friendly","Sun-Thu: 12-2:30pm, 6-10pmFri-Sat: 12-2:30pm, 6-10:30pm","$$$$","Business Meetings, Casual Dining, Drinks, Romantic Dates","City Hall, Bugis, Marina Central","30 Beach RoadLevel B1MJW Marriott Hotel Singapore South BeachSingapore (189763) ","189763","1.29468701742485","103.855528738059"
"Al Borgo @ Alocassia Apartments","Italian, Seafood, Steakhouse, Vegetarian Friendly","Mon: 11:30am-2pm, 5:30-9:30pmWed-Sun: 11:30am-2pm, 5:30-9:30pmClosed Tuesday","$$$","Casual Dining, Kid Friendly, Drinks, Quiet Dinner","Bukit Timah","383 Bukit Timah Road#01-02Alocassia ApartmentsSingapore (259727) ","259727","1.31943645952176","103.827347301883"
"Al Forno (East Coast) Italian Restaurant","Italian, Vegetarian Friendly","Mon-Fri: 12-2pm, 6.30-10pmSat-Sun: 12-2pm, 5.30-10pm","$$$","Al Fresco, Casual Dining, Kid Friendly, Drinks, Private Functions, Large Parties (16+)","East Coast","400 East Coast RoadLe Peranakan HotelSingapore (428996) ","428996","1.30872020865679","103.912043488378"
"Al Forno Tapas & Wine Bar","Bar, Italian, All-Day Breakfast, Vegetarian Friendly","Mon-Thu: 5-10:30pmFri-Sat: 3-10:30pmSun: 12-10pm","$$","Al Fresco, Business Meetings, Casual Dining, Kid Friendly, Drinks, Pet Friendly, Private Functions, Large Parties (16+)","East Coast","693A East Coast RoadSingapore (459058) ","459058","1.31190105580921","103.921875613238"
"Alati Divine Greek Cuisine","Seafood, Greek, Vegetarian Friendly","Mon-Fri: 12-2:30pm (Last Order: 1:45pm), 5:30pm-11pm (Last Order: 9:45pm)Sat: 5:30pm-11pm (Last Order: 9:45pm)Closed Sunday","$$$","Business Meetings, Casual Dining, Private Functions","Tanjong Pagar, Telok Ayer","73 Amoy StreetSingapore (069892) ","069892","1.28033038618626","103.846574136526"
"AlcoVault Bistro & Whisky Bar","Bar, Fusion, Steakhouse, Modern Asian","Mon-Sat: 3-11pmClosed Sunday","$$$","Al Fresco, Business Meetings, Casual Dining, Drinks, Private Functions, Romantic Dates","Clarke Quay","18 Carpenter StreetSingapore (059907) ","059907","1.28839839373324","103.847769590762"
"Alegria","American, Bar, Fusion, South American, Mexican, Modern Asian","Tue-Thu: 3-10:30pmFri-Sun: 12-10:30pmClosed Monday","$$$","Al Fresco, Business Meetings, Casual Dining, Drinks, Private Functions, Quiet Dinner, Romantic Dates","Outram","18 Teck Lim Road#01-01 Singapore (088390) ","088390","1.28051428275115","103.841913115015"
"Alley Bar","Bar, Modern European, Fusion, Local","Mon-Sun: 3-10:30pm","$$","Casual Dining, Drinks","Orchard","2 Emerald Hill RoadPeranakan PlaceSingapore (229287) ","229287","1.30156389301026","103.839294299013"
"Alley on 25","Buffet, Seafood, Vegetarian Friendly, Burgers, Modern Asian","Mon-Sun: 12-2:30, 3-5pm, 6-10:30pm","$$$$","Casual Dining, Kid Friendly, Drinks, Quiet Dinner","Bugis","5 Fraser StreetLevel 25Andaz SingaporeSingapore (189354) ","189354","1.29915739776463","103.858020324447"
"Alma By Juan Amador","Modern European","Mon: 6-9:30pm (Last Reservation: 7:30pm)Tue-Sat: 12-2:30pm (Last Reservation: 1:30pm), 6-9:30pm (Last Reservation: 7:30pm)Closed Sunday","$$$$","Al Fresco, Business Meetings, Casual Dining, Drinks, Private Functions, Quiet Dinner, Romantic Dates, Large Parties (16+)","Orchard","22 Scotts RoadGoodwood Park HotelSingapore (228221) ","228221","1.30771173944605","103.834556167895"
"Almost Famous Craft Beer Bar","Bar, Fusion, Vegetarian Friendly","Mon-Fri: 5-10.30pmSat-Sun: 12-10.30pm","$$","Casual Dining, Drinks","City Hall, CHIJMES","30 Victoria StreetSingapore (187996) ","187996","1.29479670956332","103.852573366033"
"Alter Ego","American, Bar, Fusion, Cafe","Mon-Fri: 12-11pmSat-Sun: 11am-11pm","$$","Al Fresco, Business Meetings, City Views, Casual Dining, Kid Friendly, Drinks, Private Functions, Romantic Dates","City Hall, Marina Bay, Promenade, Esplanade, Marina Central","8 Raffles Avenue#01-13DEsplanade MallSingapore (039802) ","039802","1.28966932376699","103.855952707685"
"Amano","Italian","Tue-Sun: 12-10pmClosed Monday","$$$","Business Meetings, Casual Dining, Kid Friendly, Drinks, Private Functions, Quiet Dinner, Romantic Dates","Bukit Timah","76 Namly PlaceSingapore (267226) ","267226","1.32432228997049","103.796723947087"
"Amazing Hokkaido","Bar, Japanese","Mon-Sun: 5:30-11pm","$$$","Al Fresco, Business Meetings, Casual Dining, Kid Friendly, Drinks, Pet Friendly, Large Parties (16+)","Robertson Quay","30 Robertson Quay#01-16Singapore (238251) ","238251","1.29123960983988","103.841280608041"
"Amber West","International","Mon: 12-2pmTue-Fri: 12-2pm, 6-8pmClosed Saturday & Sunday","$$","Casual Dining, Quiet Dinner","Choa Chu Kang","1 Choa Chu Kang GroveSingapore (688236) ","688236","1.37527500765096","103.752407481466"
"Ambling Turtle","All-Day Breakfast, Local, Southeast Asian, Cafe, Dessert Only","Sun-Thu: 9am-6pmFri-Sat: 9am-10pm","$$","Al Fresco, Business Meetings, Casual Dining, Kid Friendly, Pet Friendly","East Coast","66 East Coast Road#01-01The FlowSingapore (428778) ","428778","1.30457354662016","103.904203116447"
"Ambush-Pan European Dining (Junction 8)","Modern European, French, Italian, Spanish, Seafood, German, Cafe","Mon-Sun: 11am-10pm","$$","Business Meetings, Casual Dining, Kid Friendly","Bishan","9 Bishan Place#02-19/20/27Junction 8 Shopping CentreSingapore (579837) ","579837","1.35012457632394","103.848487134435"
"Ameising Bar & Dining","Bar, Japanese","Mon-Fri: 11:30am-2pm, 4:30-10:30pmSat: 12-10pmClosed Sunday & PH","$$","Al Fresco, Business Meetings, City Views, Casual Dining, Drinks, Pet Friendly, Private Functions, Quiet Dinner, Romantic Dates","Raffles Place","16 Raffles Quay#01-02AHong Leong BuildingSingapore (048581) ","048581","1.28136359915756","103.850914468583"
"Amò","Bar, Italian, Vegetarian Friendly","Mon-Sun: 12-2:30pm (Last Order: 2pm), 6-10:30pm (Last Order: 9:30pm)","$$$","Al Fresco, Business Meetings, Casual Dining, Drinks, Private Functions, Romantic Dates","Clarke Quay","33 Hongkong StreetSingapore (059672) ","059672","1.28743955874319","103.847130213549"
"Anglo Indian Cafe & Bar (Chijmes)","Indian","Mon-Sun: 12-11pm","$$","Casual Dining, Drinks","City Hall, CHIJMES","30 Victoria Street#01-13ChijmesSingapore (187996) ","187996","1.29479670956332","103.852573366033"
"Anglo Indian Cafe & Bar (Marina One)","Indian","Mon-Fri: 11am-10pmClosed Saturday, Sunday & PH","$$","Casual Dining, Drinks","Marina Bay","5 Straits View#01-10Marina OneSingapore (018935) ","018935","1.27737235072298","103.852844801266"
"Anglo Indian Cafe & Bar (Shenton Way)","Indian","Mon-Sun: 11am-10pm","$$","Casual Dining, Drinks","Marina Bay","1 Shenton Way#01-08Singapore (068803) ","068803","1.27929478959373","103.850552555075"
"ANJU","Korean","Tue-Sat: 6-10:30pmClosed Monday and Sunday","$$$","Business Meetings, Drinks, Quiet Dinner, Romantic Dates","Tanjong Pagar","62 Tras StreetSingapore (079001) ","079001","1.27782371433632","103.844122818044"
"Anouska's Restaurant and Bar","Chinese","Mon-Sun: 12-2:30pm, 5-10:30pm","$$$","Drinks, Romantic Dates","Tanjong Pagar","83 Duxton RoadSingapore (089540) ","089540","1.27887034677386","103.843187857264"
"Anti:dote","Bar, Modern European, British, Vegetarian Friendly, Cafe, Vegetarian, Dessert Only","Mon-Sun: 12-11pm","$$","Business Meetings, Casual Dining, Drinks, Private Functions, Romantic Dates","City Hall","80 Bras Basah RoadLevel 1Fairmont SingaporeSingapore (189560) ","189560","1.29401984307381","103.853985655061"
"Apollo Coffee Bar","Fusion, All-Day Breakfast, Cafe",NA,"$$","Al Fresco, Business Meetings, Casual Dining, Kid Friendly, Drinks, Private Functions","Serangoon","65 Serangoon Garden WaySingapore (555961) ","555961","1.36346871778602","103.865419193862"
"Aqua Luna","Bar",NA,"$$","Al Fresco, Drinks, Romantic Dates","Queenstown","323 Alexandra RoadLevel 7Park Hotel AlexandraSingapore (159972) ","159972","1.28745612377699","103.805414652014"
"Arbenz @ Swiss Club","Modern European, Fusion","Wed-Sun: 11:30am-3pm (Last Order: 2:15pm), 6-11pm (Last Order: 9:30pm)Closed Monday and Tuesday","$$$$","Al Fresco, Business Meetings, Fine Dining, Drinks, Private Functions, Quiet Dinner, Romantic Dates","Bukit Timah","36 Swiss Club RoadSingapore (288139) ","288139","1.34323098690167","103.791573590849"
"Arbora","Fusion","Mon-Fri: 11am-3pm (Last Order: 2:30pm), 4-6pm (Last Order: 5:30pm), 6-10:30pm (Last Order: 9:30pm)Sat-Sun & PH: 8:30-11:30am (Last Order: 10:30am), 11:30am-5pm (Last Order: 4:30pm), 6-10:30pm (Last Order: 9:30pm)","$$$","Al Fresco, Casual Dining, Drinks, Romantic Dates, Large Parties (16+)","Harbourfront","109 Mount Faber RoadFaber Peak SingaporeSingapore (099203) ","099203","1.27109117295922","103.81976836625"
"Arkadas Cafe","Middle Eastern","Mon-Sun: 11am-10pm","$$","Business Meetings, Drinks","Buona Vista","1 Fusionopolis View#01-02Sandcrawler BuildingSingapore (138577) ","138577","1.29994179707526","103.789404349716"
"Aromas of India","Indian, Fusion, Middle Eastern, Vegetarian Friendly","Mon-Sun: 11am-11pm","$$","Business Meetings, Casual Dining, Kid Friendly, Drinks, Private Functions, Large Parties (16+)","Little India","60 Race Course RoadSingapore (218567) ","218567","1.30845104495699","103.851155021653"
"Art","Italian",NA,"$$$","Business Meetings, City Views, Fine Dining, Drinks, Private Functions, Quiet Dinner, Romantic Dates, Large Parties (16+)","City Hall","1 St Andrew’s Road#06-02National GallerySingapore (178957) ","178957","1.29065533812994","103.851708013559"
"Ashino","Japanese","Tue-Sun: 12-2pm, 6-10pmClosed Monday","$$$$$","Fine Dining, Private Functions","City Hall, CHIJMES","30 Victoria Street#01-23CHIJMESSingapore (187996) ","187996","1.29479670956332","103.852573366033"
"Asian Market Cafe","Buffet, Malaysian, Fusion, International, Seafood, Vegetarian Friendly, Local, Southeast Asian, Halal Certified","1 Jan to 2 AprMon, Thu-Fri: 12-2:30pm, 6-10pmSat & Sun: 12-4pm, 6-10pmClosed Tuesday and Wednesday3 April to 2 MayThu-Fri: 6-10pmSat-Sun: 12-4pm, 6-10pmClosed Monday to Wednesday","$$$","Casual Dining, Kid Friendly","City Hall","80 Bras Basah RoadLevel 2Fairmont SingaporeSingapore (189560) ","189560","1.29401984307381","103.853985655061"
"Astor Bar at The St. Regis Singapore","American, Bar, International","Wed-Sun: 3-10:30pmClosed Monday & Tuesday","$$$","Business Meetings, Casual Dining, Drinks, Private Functions, Romantic Dates","Tanglin","29 Tanglin RoadLevel 1The St. Regis SingaporeSingapore (247911) ","247911","1.30566141166044","103.826053512399"
"Atico Lounge","Bar","Mon-Sun: 12-5pm (Lunch Last Order: 2:30pm, High Tea Last Order: 4:30pm), 6-10pm (Lounge)","$$$","Business Meetings, City Views, Drinks, Romantic Dates","Orchard","2 Orchard TurnION OrchardLevel 56Singapore (238801) ","238801","1.30473094842364","103.831465536872"
"Atlas Coffeehouse","Fusion, All-Day Breakfast, Vegetarian Friendly, Cafe","Tue-Sun: 8am-7pmClosed Monday","$$","Business Meetings, Casual Dining, Kid Friendly, Drinks, Private Functions","Bukit Timah","6 Duke's RoadSingapore (268886) ","268886","1.32289788330663","103.811997861957"
"Atrium Bar 317","American, Bar, Local","Mon-Sun: 9am-11pm","$$","Al Fresco, Business Meetings, Casual Dining, Drinks, Quiet Dinner, Romantic Dates, Large Parties (16+)","Outram","317 Outram RoadSingapore (169075) ","169075","1.28888605616528","103.834206802698"
"Atrium Lounge","American, Local, Dessert Only","Mon-Sun: 11am-10pm","$$$","Business Meetings, Casual Dining, Drinks, Quiet Dinner","Marina Bay","7 Raffles BoulevardPan Pacific HotelSingapore (039595) ","039595","1.29111729179215","103.857758268089"
"Atrium Restaurant","Buffet, Chinese, Japanese, Indian, Fusion, International, Seafood, All-Day Breakfast, Vegetarian Friendly, Local, Peranakan, Halal Certified, Cafe, Burgers, Modern Asian","Mon-Sun: 12-9:30pm","$$$","Business Meetings, Casual Dining, Kid Friendly, Private Functions","Tiong Bahru, Outram","317 Outram RoadLevel 4Holiday Inn Singapore AtriumSingapore (169075) ","169075","1.28888605616528","103.834206802698"
"Avenue 87","Bar, Modern Asian","Mon-Sat: 11:30am-2:30pm, 6-10pmClosed Sunday and PH","$$$","Fine Dining, Drinks, Private Functions, Quiet Dinner, Romantic Dates","Telok Ayer","47 Amoy StreetSingapore (069873) ","069873","1.28035604432096","103.846929733883"
"Awadh","Indian","Mon-Sun: 11:30-1:30am","$$","Business Meetings, Casual Dining, Kid Friendly","Orchard","176 Orchard Road#01-33HThe CentrepointSingapore (238843) ","238843","1.30151446722773","103.840054426935"
"Awfully Chocolate (Greenwich V)","Cafe","Mon-Sun: 10am-10pm","$$","Casual Dining, Drinks, Private Functions","Yio Chu Kang, Ang Mo Kio","1 Seletar Road#02-02Greenwich VSingapore (807011) ","807011","1.38739538356829","103.869135979261"
"Awfully Chocolate Bakery & Cafe","Bar, All-Day Breakfast, Cafe",NA,"$$","Casual Dining, Kid Friendly, Private Functions, Quiet Dinner","East Coast","131 East Coast RoadSingapore (428816) ","428816","1.30613769904974","103.904889462032"
"Azmaya","Buffet, Japanese",NA,"$$$","Casual Dining, Drinks, Pet Friendly, Large Parties (16+)","Robertson Quay","30 Robertson Quay#01-12Singapore (238251) ","238251","1.29123960983988","103.841280608041"
"Azmaya Honten (Cuppage Plaza)","Buffet, Japanese, Steamboat",NA,"$$$","Casual Dining, Kid Friendly, Drinks, Private Functions, Large Parties (16+)","Orchard","5 Koek Road #03-24 Cuppage Plaza Singapore (228796) ","228796","1.30199868252287","103.84073976691"
"Baba Chews Bar and Eatery","Modern Asian","Mon-Thu: 11:30am-9:30pmFri: 11:30am-10pmSat-Sun: 11am-10pm","$$","Business Meetings, Casual Dining, Drinks","East Coast","86 East Coast RoadKatong SquareSingapore (428788) ","428788","1.3051475444886","103.904358869276"
"Baci Baci","Italian","Mon-Sun: 12-2pm, 6-10pm","$$$","Al Fresco, Business Meetings, Private Functions","Serangoon","27 Lichfield RoadSingapore (556847) ","556847","1.36494072936387","103.870164959681"
"BAFO","Japanese, Fusion, Seafood, Local","Mon-Fri: 11:30am-3pm (Last Order 2:30pm), 5:30-10:30pm (Last Order 10pm)Closed Saturday & Sunday","$$","Casual Dining, Drinks, Private Functions","Tanjong Pagar","10 Anson Road#01-03International PlazaSingapore (079903) ","079903","1.27581359844209","103.84598361373"
"Bailamos Bistro Bar & Cafe","American, Bar, Fusion, Seafood, Vegetarian Friendly, Burgers, Vegetarian","Mon-Sun: 11am-10.30pm","$$","Business Meetings, Casual Dining, Drinks, Private Functions, Quiet Dinner, Romantic Dates","Jalan Besar","22 Sam Leong Road Singapore (207913) ","207913","1.30951817757725","103.85694628733"
"Bali Thai (Causeway Point)","Indonesian, Thai, Fusion, Halal Certified",NA,"$$","Casual Dining","Woodlands","1 Woodlands Square#05-05Causeway PointSingapore (738099) ","738099","1.43592702612215","103.786047454862"
"Bali Thai (IMM)","Indonesian, Thai, Fusion, Halal Certified","Mon-Sun: 11:30am-10pm (Last Order: 9:30pm)","$$","Casual Dining","Jurong","2 Jurong East Street 21#01-21IMMSingapore (609601) ","609601","1.33491758755437","103.746877132868"
"Bali Thai (NEX)","Indonesian, Thai, Fusion, Halal Certified",NA,"$$","Casual Dining","Serangoon","23 Serangoon Central#02-13NEXSingapore (556083) ","556083","1.35088882151724","103.87211567247"
"Bali Thai (Ngee Ann City)","Indonesian, Thai, Fusion, Halal Certified",NA,"$$","Casual Dining","Orchard","391A Orchard Road#05-29 Ngee Ann City Podium BlockSingapore (238873) ","238873","1.30242417189411","103.834676124723"
"Bali Thai (Suntec City)","Indonesian, Thai, Fusion, Halal Certified",NA,"$$","Casual Dining","City Hall, Promenade","3 Temasek Boulevard#B1-121A/121BSuntec CitySingapore (038983)","038983","1.29432416524256","103.860371993025"
"Bali Thai (Waterway Point)","Indonesian, Thai, Fusion, Halal Certified",NA,"$$","Casual Dining","Punggol","83 Punggol Central#B1-13Waterway PointSingapore (828761) ","828761","1.40643915592695","103.902172250042"
"BAM! Restaurant","Spanish, Vegetarian Friendly","Tue-Sat: 12-2pm (Last Seating: 1:30pm), 6-10:30pm (Last Seating: 9:30pm)Closed Monday and Sunday","$$$$","Al Fresco, Business Meetings, Casual Dining, Drinks, Private Functions, Romantic Dates","Tanjong Pagar, Duxton","38 Tras StreetSingapore (078977) ","078977","1.27840011500572","103.844268889102"
"Bangkok Jam (Marina Square)","Thai","Mon-Thu: 11:30am-3:30pm, 5:30-9:30pmFri-Sun: 11:30am-9:30pm","$$","Casual Dining, Kid Friendly","Promenade, Marina Central","6 Raffles Boulevard#02-105B/CMarina SquareSingapore (039594) ","039594","1.29097199909542","103.857575411708"
"Bao Makers","Bar, Cafe","Tue-Thu: 12-3pm, 6-9pmFri: 12-3pm, 6-10pmSat: 12-3:30pm, 6-10pmSun: 12-3:30pmClosed Monday","$$","Business Meetings, Casual Dining, Kid Friendly, Drinks, Private Functions, Quiet Dinner","Chinatown, Keong Saik, Outram","4 Jiak Chuan RoadSingapore (089261) ","089261","1.27959218779586","103.841765871585"
"Bar Bar Black Sheep (Bukit Timah)","American, Bar, Indian, Vegetarian Friendly, Southeast Asian, Burgers","Mon-Sun: 12-10:30pm","$$","Casual Dining, Kid Friendly, Drinks, Large Parties (16+)","Bukit Timah","879 Bukit Timah RoadSingapore (279892) ","279892","1.3326759841614","103.791149994041"
"Bar Bar Black Sheep (Robertson Quay)","American, Bar, Indian, Vegetarian Friendly, Local, Southeast Asian, Burgers, BBQ","Mon-Sun: 12-10:30pm","$$","Casual Dining, Kid Friendly, Drinks, Large Parties (16+)","Robertson Quay","86 Robertson Quay#01-04Singapore (238245) ","238245","1.29026307473852","103.837158903917"
"Bar Bar Q","Bar, Chinese, BBQ","Mon-Sun: 12-10:30pm","$$$","Al Fresco, City Views, Casual Dining, Drinks, Private Functions","Promenade","3 Temasek Boulevard#01-602Suntec City Tower 4Singapore (038983) ","038983","1.29432416524256","103.860371993025"
"BAR.CELONA","Spanish","Tue-Sat: 5-11pmSun: 4-11pmClosed Monday","$$$","Fine Dining, Drinks, Romantic Dates","Robertson Quay","30 Robertson Quay #01-10/11Singapore (238251) ","238251","1.29123960983988","103.841280608041"
"Barcelona","Bar, Spanish, Fusion","Mon-Sat: 5-11pmClosed Sunday","$$","Al Fresco, Business Meetings, Casual Dining, Drinks, Romantic Dates, Large Parties (16+)","Outram","44 Bukit Pasoh RoadSingapore (089857) ","089857","1.27972439942239","103.840535690401"
"Barossa Steak & Grill","Bar, Australian, Steakhouse, Burgers","Mon-Fri: 12-3pm (Last order: 2:30pm), 5-10pm (Last order: 9:30pm)Sat-Sun: 11am-10pm (Last order: 9:30pm)","$$$","Al Fresco, Business Meetings, Casual Dining, Drinks, Quiet Dinner, Romantic Dates","Harbourfront","1 HarbourFront Walk#01-161/162VivoCitySingapore (098585) ","098585","1.26427054261311","103.822476140813"
"basdban","Bar, Chinese, Fusion, Southeast Asian",NA,"$$$","Al Fresco, City Views, Casual Dining, Kid Friendly, Drinks, Private Functions, Romantic Dates","Telok Ayer","51 Telok Ayer Street#01-01Singapore (048441) ","048441","1.28286636225753","103.849289233227"
"Basil & Thyme","Thai, Fusion, Vegetarian Friendly, Burgers, BBQ","Tue-Fri: 1:30-9:30pmSat-Sun: 11:30am-2:30pm, 5-10:30pmClosed Monday","$$","Al Fresco, Casual Dining, Kid Friendly, Drinks, Pet Friendly, Quiet Dinner, Romantic Dates","East Coast","920 East Coast Parkway#01-20 to 24Parkland GreenSingapore (449875) ","449875","1.29892593488432","103.906730601853"
"Basilico","Italian, Vegetarian Friendly","Mon-Fri: 12-2:30pm, 6-9:30pmSat-Sun: 12-3pm, 6-9:30pm","$$$$","Al Fresco, Business Meetings, Kid Friendly, Private Functions","Orchard, Tanglin","1 Cuscaden RoadLevel 2Regent SingaporeSingapore (249715) ","249715","1.30465158301868","103.824907858738"
"Basque Kitchen by Aitor","Spanish, Vegetarian Friendly",NA,"$$$$","Business Meetings, Fine Dining, Casual Dining, Drinks, Private Functions","Fullerton","3 Fullerton Road #02-01/02/03 The Fullerton Waterboat House Singapore (049215) ","049215","1.28705068989413","103.853593377224"
"Bayswater Kitchen","Bar, Fusion, Seafood","Tue-Thu: 11:30am-3pm (Last Order: 2:30pm), 6-10pm (Last Order: 9:30pm)Fri: 11:30am-3pm (Last Order: 2:30pm), 6-10.30pm (Last Order: 10pm)Sat & PH Eve: 6-10:30pm (Last Order: 10pm)Sun & PH: 11am-3:30pm (Last Order: 3pm), 6-10pm (Last Order: 9:30pm)Closed Monday","$$$","Casual Dining, Kid Friendly, Private Functions, Quiet Dinner","Harbourfront","2 Keppel Bay VistaMarina At Keppel BaySingapore (098382) ","098382","1.26398120067494","103.812517727327"
"Beach Road Kitchen (JW Marriott Singapore South Beach)","Buffet, Chinese, Indonesian, Italian, International, Seafood, Vegetarian Friendly, Local","Fri: 6-10pmSat: 12-2:30pm, 6-10pmSun: 12-3pm, 6-10pmClosed Monday to Thursday","$$$","Al Fresco, Business Meetings, Casual Dining, Kid Friendly","City Hall, Bugis, Marina Central","30 Beach RoadJW Marriott Singapore South BeachSingapore (189763) ","189763","1.29468701742485","103.855528738059"
"The Beacon","Bar, Italian","Mon-Wed: 5pm-4amFri-Sat: 5pm-4amSun: 5pm-1amClosed Thursday","$$$","Al Fresco, Casual Dining, Drinks, Large Parties (16+)","City Hall","6 Raffles Boulevard#01-01/02/03Marina SquareSingapore (039594) ","039594","1.29097199909542","103.857575411708"
"Beast & Butterflies","Bar, Modern European, Fusion, Modern Asian","Mon-Thu: 6:30-10am, 11:30am-10pmFri: 6:30-10am, 11:30am-11pmSat: 6:30-10am, 11am-11pmSun: 6:30-10am, 11am-10pm","$$","Al Fresco, Business Meetings, Casual Dining, Kid Friendly, Drinks, Private Functions, Quiet Dinner, Romantic Dates","Robertson Quay","90 Robertson QuaySingapore (238259) ","238259","1.29083412595769","103.837280353189"
"Beats Bites & Cocktails","Bar, Modern European, Japanese, Fusion, International, Vegetarian Friendly, Modern Asian","Wed-Fri: 3-10:30pmSat: 5-10:30pmSun: 1-4pmClosed Monday & Tuesday","$$$","Al Fresco, Business Meetings, Drinks, Private Functions, Romantic Dates","Tanjong Pagar","8 Bukit Pasoh RoadSingapore (089822) ","089822","1.27881938580552","103.840979812235"
"Bedrock Bar & Grill","American, Steakhouse","Mon-Sun: 12-3pm (Last Order: 2:30pm), 6-10:30pm (Last Order: 9:45pm)","$$$$","Al Fresco, Business Meetings, Casual Dining, Drinks, Private Functions, Quiet Dinner","Orchard","96 Somerset Road#01-05Pan Pacific Serviced Suites OrchardSingapore (238163) ","238163","1.30088651709242","103.837908858018"
"Bedrock Origin","Seafood, Steakhouse","Mon-Sun: 7-10:30am (Last Order: 9:30am), 12-3pm (Last Order: 2:30pm), 6-10:30pm (Last Order: 9:30pm)","$$$$$","Pet Friendly","Sentosa","23 Beach View Palawan Ridge#01-02Oasia Resort Sentosa HotelSingapore (098679) ","098679","1.25324887401431","103.819866102572"
"Bee's Knees","Vegetarian Friendly, Cafe","Mon-Sun:8am-10pm","$$","Al Fresco, Casual Dining, Kid Friendly, Drinks, Pet Friendly, Large Parties (16+)","Bukit Timah","50 Cluny Park RoadLevel 1The GarageSingapore Botanic GardensSingapore (257488) ","257488","1.31887960614941","103.815580624329"
"Bee's Knees Urban","Bar, Modern European","Mon-Fri: 8am-10:30pmClosed Saturday & Sunday","$$","Casual Dining, Drinks","Raffles Place","86 Market Street#01-02Singapore (048947) ","048947","1.28390006495234","103.850005961205"
"Bei Fang Ren Jia","Chinese, Seafood, Local, BBQ","Mon-Sun: 11:30am-11pm","$$$","Business Meetings, City Views, Fine Dining, Casual Dining, Drinks, Quiet Dinner","Serangoon","322 Serangoon RoadSingapore (218109) ","218109","1.31137202612107","103.855321481008"
"Beirut Grill","Middle Eastern, Vegetarian Friendly","Mon-Fri: 11:30am-10pmSat-Sun: 11:30am-11pm","$$","Al Fresco, Casual Dining, Drinks","Bugis","72 Bussorah StreetSingapore (199485) ","199485","1.30081474017659","103.8599572091"
"Bella Pasta","Italian","Mon-Fri 11:30am-1:30pm, 6-10pmSat, Sun & PH: 11.30am-11pmClosed Tuesday","$$$","Al Fresco, Business Meetings, Casual Dining, Kid Friendly, Drinks, Private Functions, Quiet Dinner, Romantic Dates","Robertson Quay","30 Robertson Quay#01-09Riverside View Singapore (238251) ","238251","1.29123960983988","103.841280608041"
"Bella Pizza","Italian","Tue-Fri:12-3pm, 6-11pmSat-Sun:11:30am-3pm, 5:30-11:30pmClosed Monday","$$$","Al Fresco, Casual Dining, Kid Friendly, Drinks, Private Functions","Robertson Quay","30 Robertson Quay #01-14 Riverside ViewSingapore (238251) ","238251","1.29123960983988","103.841280608041"
"Belo Cafe","Fusion, All-Day Breakfast, Cafe, Burgers","Mon-Thu: 11am-11:30pmFri: 11am-1:30amSat: 9am-1:30amSun: 9am-11:30pmEve of PH: 11am-12amPH: 9am-12am","$$","Business Meetings, Casual Dining, Kid Friendly, Drinks, Private Functions, Quiet Dinner","Thomson","222 Upper Thomson RoadSingapore (574354) ","574354","1.35291155658189","103.835310178493"
"Beng Hiang Restaurant","Chinese","Mon-Sun: 11:30am-2:30pm, 6-9:30pm","$$$","Business Meetings, Casual Dining, Kid Friendly, Private Functions","Jurong","135 Jurong Gateway Road #02-337 Singapore (600135) ","600135","1.333825407445","103.739676885744"
"Beng Who Cooks","Fusion, International, Local","Mon-Sat: 5-10pmClosed Sunday","$$$","Business Meetings, Fine Dining, Casual Dining, Drinks, Private Functions, Quiet Dinner, Romantic Dates","Outram","39 Neil RoadSingapore (088823) ","088823","1.27968731107005","103.842940214113"
"Beppu Menkan Restaurant","Japanese","Mon-Fri: 11am-3pm, 6-10pmSat: 11am-10pmPH: 12-9pmClosed Sunday","$$","Al Fresco, Casual Dining, Kid Friendly","Chinatown","3 Pickering Street# 01-32/33 China Square Central Nankin Row Singapore (048660)","048660","1.28436800095842","103.847363778038"
"The Best Brew","Bar, International, Local, Burgers","Mon-Sun: 8:30am-10:30pm","$$","Al Fresco, Casual Dining, Drinks","Robertson Quay","382 Havelock RoadFour Points by Sheraton Singapore, RiverviewSingapore (169629) ","169629","1.28937099358897","103.836603810879"
"Beurre","Modern European, Modern Asian","Mon: 5-11pm (Last Order: 10pm)Tue-Sat: 12-3pm (Last Order: 2:30pm), 5-11pm (Last Order: 10pm)Closed Sunday","$$","Casual Dining, Private Functions, Romantic Dates","Duxton, Keong Saik","23 Bukit Pasoh RoadSingapore (089837) ","089837","1.2790586747327","103.840510833276"
"Bijan Restaurant","Indonesian, Malaysian, Seafood, Local, Southeast Asian, Peranakan, Halal Certified, Modern Asian","Tue-Fri: 12-9:30pmSat-Sun & PH: 12-10:30pmClosed Monday","$$","Business Meetings, Casual Dining, Kid Friendly, Private Functions, Quiet Dinner, Romantic Dates","Paya Lebar","511 Guillemard Road #B1-02/09 Grandlink Square Singapore (399849) ","399849","1.3141912983094","103.891500511011"
"Binary","Bar, International, Vegetarian Friendly","Mon-Sun: 11:30am-10:30pm (Last Order: 9:30pm)","$$$","Al Fresco, City Views, Casual Dining, Drinks","Orchard","390 Orchard Road #01-01a Palais RenaissanceSingapore (238871) ","238871","1.30665484543191","103.829588045188"
"Bincho at Hua Bee","Japanese","Tue-Wed: 6pm-12amThu-Sun: 12-3pm (Last Order: 2:30pm), 6pm-12amClosed Monday","$$$$","Casual Dining, Drinks, Private Functions, Quiet Dinner, Romantic Dates","Tiong Bahru","78 Moh Guan Terrace #01-19 Singapore (162078) ","162078","1.28363327298815","103.830492514551"
"Bincho at Min Jiang","Japanese","Tue-Sun: 12-3pm (Last Order: 2:30pm), 6pm-12am (Last Order: 9:30pm (Food), 10:30pm (Drinks))Closed Monday","$$$$$","Business Meetings, Drinks, Quiet Dinner","Dempsey","7A/B Dempsey Road Singapore (249684) ","249684","1.30468170960651","103.808035494141"
"Binomio","Spanish","Mon-Fri: 12-2pm, 5:30-10pmSat: 5:30-10pmClosed Sunday","$$$","Business Meetings, Fine Dining, Drinks, Quiet Dinner, Romantic Dates, Large Parties (16+)","Tanjong Pagar, Duxton","20 Craig Road #01-02Singapore (089692) ","089692","1.27803124712698","103.84238791264"
"Birds of a Feather","Bar, Chinese, Fusion, Cafe","Mon-Thu: 11am-3pm, 5-10:30pmFri-Sun: 11am-10:30pm","$$$","Business Meetings, Casual Dining, Drinks, Private Functions, Quiet Dinner, Romantic Dates","Chinatown, Telok Ayer","115 Amoy Street #01-01 Singapore (069935) ","069935","1.28221657543081","103.847571667462"
"Biseryu Japanese Restaurant","Japanese, Fusion, Steakhouse, Cafe, Burgers",NA,"$$","Business Meetings, Casual Dining, Drinks, Private Functions, Quiet Dinner","Orchard","14 Scotts Road #02-59 Far East Plaza Singapore (228213) ","228213","1.30726606438138","103.833735289647"
"Bistro G","Modern European, French","Mon-Sun: 10am-10pm","$$","Business Meetings, Casual Dining, Drinks, Private Functions","Promenade","9 Raffles Blvd#01-79/80Millenia WalkSingapore (039596) ","039596","1.29260544462492","103.859724944443"
"Black Marble","Seafood, Steakhouse, Cafe, Burgers, BBQ","Mon-Sun: 11am-10pm","$$","Casual Dining, Drinks, Quiet Dinner","Holland Village","118 Holland Avenue #02-01 Singapore (278997) ","278997","1.31056351475336","103.796107173318"
"Black Pearl Steakhouse (East Coast)","American, Modern European, French, Australian, Fusion, International, Seafood, Steakhouse, Vegetarian Friendly, Modern Asian","Mon-Sun: 11:30am-3pm, 6-11pm","$$","Business Meetings, Casual Dining, Kid Friendly, Drinks, Private Functions, Quiet Dinner, Romantic Dates, Large Parties (16+)","East Coast, Bedok","85 Upper East Coast RoadSingapore (455222) ","455222","1.31340154929847","103.927750511093"
"Black Pearl Steakhouse (Holland Village)","International, Steakhouse, Burgers","Mon-Sun: 11:30am-2:30pm, 6-10:30pm","$$$","Business Meetings, Casual Dining, Kid Friendly, Drinks, Private Functions","Holland Village","40 Lorong MambongSingapore (277695) ","277695","1.31196950094046","103.794519145925"
"Black Society","Chinese, Seafood, Dim Sum","Mon-Sun: 11am-10pm","$$$","Al Fresco, Business Meetings, City Views, Fine Dining, Casual Dining, Kid Friendly, Drinks, Private Functions, Quiet Dinner, Romantic Dates","Harbourfront","1 HarbourFront Walk#02-156/157VivoCitySingapore (098585) ","098585","1.26427054261311","103.822476140813"
"Blu Kouzina (Dempsey)","Greek","Mon-Fri: 11:30am-3:30pm (Last Order: 2:30pm), 5:30-10pm (Last Order: 9:30pm (Food)), 9:45pm (Drinks))Sat-Sun: 8:30-10:30am, 11:30am-3:30pm (Last Order: 2:30pm), 5:30-10pm (Last Order: 9:30pm (Food), 9:45pm (Drinks))","$$$","Al Fresco, Kid Friendly, Quiet Dinner, Romantic Dates","Dempsey","10 Dempsey Road #01-20Singapore (247700) ","247700","1.30329767270241","103.81041169174"
"Blu Kouzina (Siglap)","Bar, All-Day Breakfast, Greek, Cafe, Burgers, BBQ","Mon-Thu: 11:30am–10pmFri-Sun: 8:30am–10pm","$$","Al Fresco, Business Meetings, Casual Dining, Kid Friendly, Drinks, Private Functions, Quiet Dinner, Romantic Dates","East Coast","907 East Coast Road #01-01 Singapore (459107) ","459107","1.31291496683245","103.924721677755"
"Blue Jasmine","Thai, Vegetarian Friendly",NA,"$$","Al Fresco, Casual Dining, Kid Friendly, Private Functions, Quiet Dinner","Little India","10 Farrer Park Station Road Holiday Inn Singapore Little India Singapore (217564) ","217564","1.31197979820575","103.854778576804"
"Blue Lotus Chinese Eating House","Chinese, Vegetarian Friendly","Mon-Thu: 5:30-10pmFri-Sun: 11:30am-3pm, 5:30-10pm","$$$$","Al Fresco, Business Meetings, Casual Dining, Kid Friendly, Drinks, Pet Friendly, Private Functions, Quiet Dinner","Sentosa","31 Ocean Way #01-13 Quayside IsleSingapore (098375) ","098375","1.24706997908317","103.842182970325"
"BLVD @ Changi","Bar, Cafe","Mon-Fri: 11am-10:30pmSat-Sun: 10:30am-10:30pm","$$","Al Fresco, Business Meetings, Casual Dining, Kid Friendly, Drinks, Private Functions, Quiet Dinner","Changi","5 Changi Business Park Central 1 #01-72/73 Changi City Point Singapore (486038) ","486038","1.33408359331373","103.962946083391"
"BLVD @ MBFC","Bar, Fusion, Burgers","Mon-Fri: 10:30am-10:30pmClosed Saturday & Sunday","$$","Al Fresco, Business Meetings, City Views, Casual Dining, Drinks, Private Functions, Quiet Dinner, Romantic Dates","Marina Bay","8 Marina Boulevard#01-02Marina Bay Financial Centre Tower 1Singapore (018981) ","018981","1.28007835466725","103.854157456357"
"Bob's Bar","Bar","Mon-Sun: 11:30am-10pm","$$$","Al Fresco, Drinks","Sentosa","1 The Knolls Sentosa Island Singapore (098297) ","098297","1.24945446387238","103.824447113771"
"boCHINche","Bar, Modern European, Steakhouse, South American",NA,"$$$$","Business Meetings, Casual Dining, Drinks, Private Functions, Quiet Dinner, Romantic Dates","Telok Ayer","27 Club StreetSingapore (069413) ","069413","1.28236175586713","103.846536994008"
"Bodacious","Bar, Fusion, Cafe","Mon-Sat: 11am-10pmClosed Sunday","$$","Al Fresco, Business Meetings, Casual Dining, Kid Friendly, Drinks, Pet Friendly, Private Functions, Quiet Dinner","Buona Vista","70 Biopolis Street #01-05 Singapore (138547) ","138547","1.30291803162987","103.7919357017"
"Boeuf Singapore","French, Steakhouse","Mon-Sat: 12-10:30pmClosed Sunday​","$$$","Al Fresco, Business Meetings, Casual Dining, Drinks, Quiet Dinner","Telok Ayer","159 Telok Ayer Street Singapore (068614) ","068614","1.28035320753948","103.847596327787"
"The Boiler (Esplanade)","Seafood, South American, Cajun","Sun-Thu: 11:30am-2:30pm (Last Order 2:15pm), 5-10:30pm (Last Order 9:15pm)Fri-Sat & Eve of PH: 11:30am-2:30pm (Last Order 2:15pm), 5-10:30pm (Last Order 9:30pm)","$$$","Al Fresco, Casual Dining, Kid Friendly, Drinks, Private Functions","City Hall, Esplanade, Marina Central","8 Raffles Avenue01-13AEsplanade MallSingapore (039802) ","039802","1.28966932376699","103.855952707685"
"The Boiler (Howard Road)","Seafood, South American, Cajun","Sun-Thu: 11:30am-2:30pm (Last Order 2:15pm), 5-10:30pm (Last Order 9:15pm)Fri-Sat & Eve of PH: 11:30am-2:30pm (Last Order 2:15pm), 5-10:30pm (Last Order 9:30pm)","$$$","Casual Dining, Kid Friendly, Drinks, Private Functions","Paya Lebar","18 Howard Road#01-06Novelty BizcentreSingapore (369585) ","369585","1.33421843290138","103.885796434921"
"Bollywood Spice","Bar, Indian, Fusion, Vegetarian Friendly, Local, Burgers","Mon-Sat: 11:30am-10pmClosed Sunday","$$","Al Fresco, Business Meetings, Casual Dining, Drinks, Private Functions, Romantic Dates","Clarke Quay","13A South Bridge RoadSingapore (058657) ","058657","1.28827143301483","103.848978584888"
"Bones 'n Barrels (Sentosa)","Indian, International","Mon-Sun: 5pm-2am","$$","Business Meetings, Casual Dining, Private Functions, Large Parties (16+)","Harbourfront, Sentosa","6 Sentosa Gateway #01-05 Sentosa Boardwalk Singapore (098072) ","098072","1.25830214200274","103.823350504845"
"Bornga (Suntec City)","Korean, BBQ","Mon-Sun: 11:30am-10pm","$$$","Business Meetings, Casual Dining, Kid Friendly","City Hall, Promenade, Marina Central","3 Temasek Boulevard #01-641/642 Suntec City Singapore (038983) ","038983","1.29432416524256","103.860371993025"
"Bornga (VivoCity)","Korean, BBQ","Mon-Sun: 11:30am-10pm","$$$","Business Meetings, Casual Dining, Kid Friendly","Harbourfront","1 Harbourfront Walk#02-123/124 Vivocity Singapore (098585) ","098585","1.26427054261311","103.822476140813"
"Boss Bistro & Bar","Bar","Mon-Sun: 3pm-12am","$$","Casual Dining, Drinks, Private Functions","Holland Village","25 Lorong Mambong Singapore (277684) ","277684","1.31146231463441","103.794535153889"
"Botan Japanese Restaurant","Japanese","Mon-Sat: 11:30am-2:30pm, 5:45-10pmSun: 5:45-10pm","$$","Business Meetings, City Views, Fine Dining, Casual Dining, Kid Friendly, Drinks, Private Functions, Quiet Dinner","Telok Ayer","36-37 Pekin Street#01-01Far East SquareSingapore (048766) ","048766","1.28357019882926","103.848345005564"
"Botanico at The Garage","Bar, Modern European","Tue-Thu: 6-10:30pmFri: 12-3pm, 6-10:30pmSat-Sun: 11am-3pm, 6-10:30pmClosed Monday","$$$$","Al Fresco, Business Meetings, Casual Dining, Kid Friendly, Drinks, Private Functions, Quiet Dinner, Romantic Dates, Large Parties (16+)","Bukit Timah","50 Cluny Park RoadLevel 2 The Garage Singapore Botanic GardensSingapore (257488)","257488","1.31887960614941","103.815580624329"
"Box n Sticks","Japanese","Sun-Thu: 11:45am-2:45pm (Last Order: 2pm), 6-10pm Fri-Sat & Eve of PH: 11:45am-2:45pm (Last Order: 2pm), 6pm-12am (Last Order: 11:15pm) Closed PH","$$","Al Fresco, Casual Dining, Kid Friendly, Drinks, Quiet Dinner","Bugis","28 Kandahar Street Singapore (198889) ","198889","1.30211136505313","103.859695546529"
"BQ Bar","Bar, Modern European, Vegetarian Friendly","Mon-Fri: 11am-10pmSat: 5-10pmClosed Sunday","$$","Business Meetings, Casual Dining, Drinks","Boat Quay","39 Boat QuaySingapore (049828) ","049828","1.28646127194405","103.849544759926"
"Braci","Italian, Vegetarian Friendly","Mon: 6-11pmTue-Sat: 12-2pm, 6-11pmClosed Sunday","$$$$","City Views, Fine Dining, Drinks, Private Functions, Quiet Dinner, Romantic Dates, Large Parties (16+)","Boat Quay, Raffles Place, Clarke Quay","52 Boat Quay Level 5 Singapore (049841) ","049841","1.28704971337772","103.849278295255"
"Brasserie Les Saveurs (The St. Regis Singapore)","Modern European, French, Vegetarian Friendly","Lunch | Mon – Sat: 12 – 2pmAfternoon Tea | Mon – Sat: 3 – 5pm, Sun: 3:30 – 5:30pmDinner | Daily: 6:30 – 10:30pmSunday Champagne Brunch | Sunday: 12 – 2:30pm","$$$$","Business Meetings, Fine Dining, Private Functions, Quiet Dinner, Romantic Dates","Tanglin","29 Tanglin Road Lobby Level The St. Regis Singapore Singapore (247911) ","247911","1.30566141166044","103.826053512399"
"BRDL Restaurant and Bar","Bar, Fusion, Steakhouse, Modern Asian","Mon-Sat: 12-10:30pmSun: 12-5pm","$$$","Business Meetings, Drinks, Private Functions, Quiet Dinner, Romantic Dates","Bishan","351 Braddell Road#01-01Singapore (579713) ","579713","1.34341316466064","103.845619003332"
"Bread, Beer & Brez'n","German, Cafe","Mon-Sun: 10am-10pm","$$","Al Fresco, Business Meetings, Casual Dining, Kid Friendly, Drinks, Pet Friendly, Private Functions, Quiet Dinner, Romantic Dates","Tanglin","314A Tanglin RoadPhoenix ParkSingapore (247673) ","247673","1.29877950499965","103.815460451813"
"Brewerkz Indoor Stadium","Bar, Modern Asian","Mon-Thu: 12pm-10pmFri-Sat & Eve of PH: 12pm-11pmSun & PH: 10am-10pm","$$","Al Fresco, Business Meetings, Casual Dining, Kid Friendly, Drinks, Private Functions, Large Parties (16+)","Kallang","2 Stadium Walk #01-06/07 Singapore Indoor Stadium Singapore (397691) ","397691","1.30075730368459","103.874360415059"
"Brewerkz One Fullerton","Bar, Modern Asian","Mon-Sat: 12-10:30pm Sun & PH: 10-10:30pm","$$$","Al Fresco, City Views, Casual Dining, Kid Friendly, Drinks, Private Functions, Quiet Dinner, Romantic Dates","Raffles Place","1 Fullerton Road#01-01Singapore (049213) ","049213","1.28618859279801","103.854157139967"
"Brewerkz Riverside Point","Bar, Modern Asian","Mon-Thu: 12pm-10pmFri-Sat & Eve of PH: 12pm-11pmSun & PH: 12-8pm","$$","Al Fresco, Business Meetings, City Views, Casual Dining, Kid Friendly, Drinks, Private Functions, Quiet Dinner, Large Parties (16+)","Clarke Quay","30 Merchant Road#01-07Riverside PointSingapore (058282) ","058282","1.2892925052942","103.844167619098"
"Broadway American Diner","American, Cafe","Mon-Sun: 12-9pm (Last Order: 8:40pm)","$$","Casual Dining, Kid Friendly","City Hall","13 Stamford Road#01-84BArcade @ The Capitol KempinskiSingapore (178905) ","178905","1.29307884763132","103.851261982149"
"Brotzeit Katong","Bar, German","Mon-Sun: 11am-10:30pm","$$","Business Meetings, Kid Friendly, Drinks","Marine Parade","126 East Coast RoadSingapore (428811) ","428811","1.30592054777922","103.90522882512"
"Brotzeit Raffles City","Bar, German","Mon-Sun: 11am-10:30pm","$$","Al Fresco, Business Meetings, Casual Dining, Kid Friendly, Drinks","City Hall","252 North Bridge Road#01-17Raffles City Shopping CentreSingapore (179103) ","179103","1.29376028134073","103.852768324281"
"Brotzeit VivoCity","Bar, German","Mon-Sun: 11am-10:30pm","$$$","Al Fresco, Business Meetings, Casual Dining, Kid Friendly, Drinks","Harbourfront","1 Harbourfront Walk#01-149VivoCitySingapore (098585) ","098585","1.26427054261311","103.822476140813"
"Brotzeit Westgate","Bar, German","Mon-Sun: 11am-10:30pm","$$$","Business Meetings, Casual Dining, Drinks","Jurong","3 Gateway Drive#01-04WestgateSingapore (608532) ","608532","1.33415752008876","103.742766489597"
"Brunetti","American, Italian, Seafood, Steakhouse, All-Day Breakfast, Vegetarian Friendly, Cafe","Mon-Sun: 9am-9pm","$$","Al Fresco, Business Meetings, Casual Dining, Kid Friendly, Drinks, Pet Friendly","Kallang","2 Kallang Avenue#02-17CT HubSingapore (339407) ","339407","1.31215967710055","103.86294146611"
"The Buffet at M Hotel","Buffet, International, Seafood, Vegetarian Friendly, Halal Certified, Steamboat","Fri-Sun: 6-10pmClosed Mon-Thu","$$$","Business Meetings, Casual Dining, Private Functions, Quiet Dinner, Large Parties (16+)","Tanjong Pagar","81 Anson RoadM HotelSingapore (079908) ","079908","1.27368777727476","103.845060205824"
"Buko Nero","Italian","Tue-Thu: 6-11:30pmFri & Sat: 12-2pm, 6-11:30pmClosed Monday & Sunday","$$$$","Casual Dining, Private Functions, Romantic Dates","Tanjong Pagar","126 Tanjong Pagar RoadSingapore (088534) ","088534","1.27766129338018","103.843408330377"
"Buona Terra","Italian","Mon-Fri: 12-3pm (Last Order: 2pm), 6:30-10:30pm (Last Order: 9:15pm)Sat: 6:30-10:30pm (Last Order: 9:15pm)Closed Sunday & PH","$$$$","Business Meetings, Fine Dining, Romantic Dates","Newton, Orchard","29 Scotts RoadSingapore (228224) ","228224","1.31071378882628","103.834737955025"
"burger bar new york","American, Bar, All-Day Breakfast, Burgers","Mon-Sat: 11:30am-10:30pm (Last Order: 10pm)Sun: 11:30am-8:30pm (Last Order: 8pm)","$$$","Casual Dining, Kid Friendly, Drinks","Telok Ayer","115 Amoy Street#01-03Singapore (069935) ","069935","1.28221657543081","103.847571667462"
"Burlamacco Ristorante (Stanley Street)","Italian, Vegetarian Friendly","Mon-Sat : 11:30am-2:15pm, 6-10:15pm Closed Sunday","$$$","Business Meetings, Kid Friendly, Private Functions, Quiet Dinner","Telok Ayer","30 Stanley StreetSingapore (068739) ","068739","1.28102475055531","103.848297344682"
"Burlamacco Ristorante @ East Coast","Italian","Tue-Sun: 9am-4pm, 6-10:30pmClosed Monday","$$$$","Al Fresco, Fine Dining, Casual Dining, Private Functions","East Coast","217 East Coast Road#01-01Singapore (428915) ","428915","1.30759648108218","103.906933720883"
"Burrata Joy & Gustavo Lapasta by Garibaldi","Modern European, Italian, Seafood, Vegetarian Friendly","Mon-Sun: 11am-10pm","$$$","Casual Dining, Kid Friendly, Drinks, Quiet Dinner, Romantic Dates","Marine Parade","30 East Coast Road#01-12/13Katong V MallSingapore (428751) ","428751","1.30377937020921","103.90291224848"
"Butcher's Block (Raffles Hotel)","Steakhouse","Wed-Fri: 6-10pmSat-Sun: 12-2.30pm; 6-10pmClosed Monday & Tuesday","$$$$$","Business Meetings, Casual Dining, Drinks, Private Functions, Quiet Dinner, Romantic Dates","City Hall","328 North Bridge Road#02-02 to #02-07Raffles ArcadeSingapore (188719)(Accessible via North Bridge Road entrance) ","188719","1.2957639685708","103.854027818424"
"The Butcher's Wife","Fusion, Local","Tue-Sun: 11:30am-10:30pm (Last Order Food: 9:30pm, Beverages: 9:45pm)Closed Monday","$$$","Casual Dining, Drinks","Tiong Bahru","19 Yong Siak StreetSingapore (168650) ","168650","1.28273291506553","103.830114614569"
"Butter & Spice","Indian","Mon-Sun: 11am-10:30pm","$$","Business Meetings, Casual Dining, Private Functions","East Coast","66 East Coast Road #01-06 The Flow MallSingapore (428778) ","428778","1.30457354662016","103.904203116447"
"Byblos Grill","Middle Eastern, Vegetarian Friendly","Mon-Sun: 11am-1am","$$","Al Fresco, Business Meetings, Casual Dining, Kid Friendly, Drinks, Private Functions, Large Parties (16+)","Bugis","14 Bussorah StreetSingapore (199435) ","199435","1.30119617121071","103.860108431188"
"béni Singapore","Japanese, French","Mon-Sat: 12-3pm, 7-10pmClosed Sunday","$$$$$","Business Meetings, Fine Dining, Private Functions, Quiet Dinner, Romantic Dates","Orchard","333A Orchard Road #02-37 Mandarin Gallery Singapore (238897) ","238897","1.30200471731963","103.836583965806"
"Bōruto","Japanese, Fusion","Mon-Sat: 11:30am-2:30pm, 6-10pmClosed Sunday","$$$","Casual Dining, Drinks, Private Functions","Chinatown","80 South Bridge Road#01-01Singapore (058710) ","058710","1.28687554213386","103.847794080986"
"Cafe de Paris","Korean, Cafe","Sun-Thu: 11am-10pmFri-Sat & PH Eve: 11am-11pm","$$","Business Meetings, Casual Dining, Kid Friendly, Private Functions, Quiet Dinner, Romantic Dates","Orchard","313 Orchard Road#B1-37313@somersetSingapore (238895) ","238895","1.30101436404056","103.838360664485"
"Café 2000","Buffet, International, Seafood, Vegetarian Friendly","Mon-Sun: 6:30am-10pm","$$$$$$$","Al Fresco, Business Meetings, Casual Dining, Kid Friendly, Drinks, Private Functions, Large Parties (16+)","Tanjong Pagar","81 Anson RoadM HotelSingapore (079908) ","079908","1.27368777727476","103.845060205824"
"Café Aux Bacchanales","French, Fusion","Mon-Sun: 11am-10pm (Last Order: 9:30pm)","$$$","Business Meetings, Casual Dining, Kid Friendly, Drinks, Private Functions, Quiet Dinner, Romantic Dates","Dhoby Ghaut","68 Orchard Road#03-83Plaza SingapuraSingapore (238839) ","238839","1.30082071769235","103.845067272938"
"Café Iguana","Bar, Vegetarian Friendly, Mexican","Mon-Thu: 5-10pmFri: 12-10:30pmSat: 12pm-11pmSun & PH: 12pm-10pmPH: 12pm till lateEve of PH: Open* - 1am**Opening on eve of PH depends on the day of the week","$$","Al Fresco, City Views, Casual Dining, Kid Friendly, Large Parties (16+)","Clarke Quay","30 Merchant Road#01-03Riverside PointSingapore (058282) ","058282","1.2892925052942","103.844167619098"
"Café Melba @ Goodman Arts Centre","Fusion, All-Day Breakfast, Vegetarian Friendly, Cafe","Mon-Fri: 10am-10pmSat-Sun: 8:30am-10pm","$$","Business Meetings, Casual Dining, Kid Friendly, Drinks","Mountbatten","90 Goodman Road#01-56Goodman Arts CentreSingapore (439053) ","439053","1.30387393589387","103.885006949965"
"Café Melba @ Mediapolis","Fusion, All-Day Breakfast, Vegetarian Friendly, Cafe","Mon-Sun: 8am-10pm","$$","Business Meetings, Casual Dining, Kid Friendly, Drinks","Buona Vista","1 Stars Avenue#03-01MediapolisSingapore (138507) ","138507","1.29555838785737","103.792222006423"
"Café Melba @ Mount Sophia","Fusion, All-Day Breakfast, Vegetarian Friendly, Cafe","Mon-Sun: 8am-10pm","$$","Business Meetings, Casual Dining, Kid Friendly, Drinks","Dhoby Ghaut","31 Mount Sophia#01-00Singapore (228480) ","228480","1.30132167432065","103.846793259202"
"Cali, Ascott Raffles Place","American, Bar, Modern European, Italian, International, Southeast Asian","Mon-Fri: 7am-2:30pm, 5:30-10pmSat-Sun & PH: 7:30-10:30am","$$","Business Meetings, Casual Dining, Kid Friendly, Drinks, Private Functions","Raffles Place","2 Finlayson GreenLevel 2, Ascott Raffles Place SingaporeSingapore (049247) ","049247","1.2820837651092","103.851559731294"
"Cali, Park Avenue Rochester Hotel","American, Bar, Italian, International, South American, Mexican","Mon-Sun: 11am-10pm (Last Order: 9:30pm)","$$","Al Fresco, Business Meetings, Casual Dining, Drinks, Private Functions","Rochester, Buona Vista","31 Rochester Drive#01-01/02Cali, Park Avenue Rochester HotelSingapore (138637) ","138637","1.30499783151032","103.788718669932"
"Camden Hill Restaurant & Bar","American, Italian, Fusion, British, Vegetarian Friendly, Local, Cafe, Burgers","Mon-Sun: 11am-8pm","$$","Al Fresco, Business Meetings, Casual Dining, Kid Friendly, Drinks, Private Functions, Quiet Dinner, Romantic Dates","Bukit Timah","22 Camden ParkHollandse ClubSingapore (299814) ","299814","1.33000348667635","103.816467275963"
"Canchita Peruvian Restaurant (Delivery)","South American",NA,NA,NA,NA,"9A Dempsey Road9A, 9BSingapore (247698) ","247698","1.30302732949899","103.809922197506"
"Candlenut","Vegetarian Friendly, Southeast Asian, Peranakan","Mon-Sun: 12-2:30pm, 6-9:30pm","$$$$","Business Meetings, Fine Dining, Private Functions, Quiet Dinner, Romantic Dates","Dempsey","Block 17A Dempsey RoadSingapore (249676) ","249676","1.30568746618258","103.810193496315"
"Canteen Bistro","Cafe, Burgers","Mon-Sat: 11am-10:30pmClosed Sunday","$$","Business Meetings, Casual Dining, Kid Friendly","Dhoby Ghaut","80 Stamford Road#B1-61SMU School of Information SystemsSingapore (178902) ","178902","1.29732560407976","103.84958354932"
"Cappadocia Turkish Restaurant","Middle Eastern, Seafood, Vegetarian Friendly, Halal Certified, Turkish","Mon-Sun: 11am-11:30pm","$$","Al Fresco, Business Meetings, City Views, Fine Dining, Casual Dining, Kid Friendly, Drinks, Pet Friendly, Private Functions, Quiet Dinner, Romantic Dates, Large Parties (16+)","Bugis","69 & 70 Bussorah StreetSingapore (199482) ","199482","1.30092583428386","103.859867186601"
"Capri Trattoria & Pizzeria","Italian",NA,"$$$","Business Meetings, Casual Dining, Kid Friendly, Quiet Dinner","Bukit Timah","3 Binjai ParkSingapore (589819) ","589819","1.33585756128471","103.786552856979"
"Captain K Seafood Tower","Fusion, Seafood, Modern Asian","Mon-Fri: 11:30am-3pm, 5:30-11pmSat-Sun: 11:30am-3pm, 5-11pm","$$$","Business Meetings, Casual Dining, Kid Friendly, Drinks, Private Functions","Bugis","112 Middle Road#01-00Midland HouseSingapore (188970) ","188970","1.29907498369995","103.853742833504"
"Carnivore Brazilian Churrascaria (CHIJMES)","Buffet, Steakhouse, South American, BBQ","Mon-Sun: 6-10pm","$$$","Al Fresco, Casual Dining, Drinks","City Hall, CHIJMES","30 Victoria Street#01-32CHIJMESSingapore (187996) ","187996","1.29479670956332","103.852573366033"
"The Carpenters Bar","Bar, Buffet, Modern European, Chinese, Japanese, Thai, Fusion, International, Burgers, Modern Asian","Mon-Fri: 12-10:30pm (Last Order: 9:30pm)Sat-Sun & PH: 2-10:30pm","$$","Al Fresco, Casual Dining, Kid Friendly, Drinks, Pet Friendly","Sembawang","28 Woodlands Sector 2Singapore (737686) ","737686","1.46122740118196","103.807853303648"
"Caruso Ristorante","Italian","Mon-Sun: 12-2:30pm, 6-11pm","$$$","Al Fresco, Kid Friendly, Private Functions, Large Parties (16+)","Bukit Timah","791 Bukit Timah Road #01-01Singapore (269764) ","269764","1.33107936911264","103.796095751068"
"The Carvery","Buffet, Modern European, Vegetarian Friendly","Mon-Sun: 7am-9pm","$$$","Al Fresco, Business Meetings, Fine Dining, Private Functions, Quiet Dinner","Queenstown","323 Alexandra RoadLevel 7Park Hotel AlexandraSingapore (159972) ","159972","1.28745612377699","103.805414652014"
"Casa by Remy Lefebvre","Modern European, International, Seafood, Vegetarian Friendly, BBQ","Wed-Sat: 12-2pm, 6-10:30pm Sun: 12-3pm, 6-10:30pm Closed Monday and Tuesday","$$$$$","Business Meetings, Fine Dining, Drinks, Private Functions, Quiet Dinner, Romantic Dates","City Hall, CHIJMES","30 Victoria Street#01-20CHIJMES Singapore (187996) ","187996","1.29479670956332","103.852573366033"
"Casa Roma Ristorante Italiano","Modern European, Italian","Tue-Sat: 11:30am-3pm, 6-10:30pmSun: 11:30am-3pm, 5-10pmClosed Monday","$$","Al Fresco, Business Meetings, Casual Dining, Kid Friendly, Drinks, Private Functions, Quiet Dinner","Bukit Timah","200 Turf Club Road#01-09The GrandstandSingapore (287994) ","287994","1.33879673523931","103.793256122847"
"Casa Tartufo","Italian, Vegetarian Friendly","Wed-Sun: 11:30am-2:30pm (Last Order: 2pm), 5:30-10pm (Last Order: 9:30pm)Closed Monday & Tuesday","$$$","Business Meetings, Fine Dining, Drinks, Private Functions, Quiet Dinner","River Valley, Club Street","6 Mohamed Sultan RoadSingapore (238956) ","238956","1.29406801283451","103.841766856606"
"Cassia","Chinese","Mon-Sun: 8-10am, 12-2pm, 6:30-10pm","$$$$","Business Meetings, Fine Dining, Quiet Dinner, Romantic Dates","Sentosa","1 The KnollsCapella Hotel, SentosaSingapore (098297) ","098297","1.24945446387238","103.824447113771"
"Catfish","Bar, Fusion, Seafood","Tue-Sat: 12-10:30pmClosed Monday & Sunday","$$$","Business Meetings, Casual Dining, Drinks, Private Functions, Romantic Dates","Telok Ayer","5 Gemmill Lane#01-01Singapore (069261) ","069261","1.28247781055796","103.847237100349"
"Cavemen Restaurant & Bar","Modern European, French, Steakhouse","Tue-Fri: 3-10:30pm (Last Order: 9:30pm)Sat-Sun: 11:30am-10pm (Brunch Last Order: 2:30pm, Dinner Last Order: 9:30pm)Closed Monday","$$$","Business Meetings, Casual Dining, Kid Friendly, Drinks, Private Functions, Large Parties (16+)","Balestier","1 Jalan Dusun#01-10One Dusun ResidencesSingapore (329363) ","329363","1.32696539864482","103.84367423097"
"Central Perk (F.R.I.E.N.D.S Cafe)","American, Bar, Fusion, Cafe","Mon-Sun: 11am-11pm","$$$","Al Fresco, Business Meetings, Casual Dining, Kid Friendly, Drinks, Private Functions, Large Parties (16+)","Robertson Quay, Clarke Quay","1 Magazine Road#01-01Central MallSingapore (059567) ","059567","1.28842848666711","103.84230028531"
"Chang Korean BBQ","Korean",NA,"$$","Al Fresco, Casual Dining, Drinks","Dempsey","71 Loewen Road#01-01Singapore (248847) ","248847","1.30197129801864","103.81155064783"
"Chao Chao Gyoza @ Cuppage Terrace","Bar, Japanese, BBQ","Mon-Sun: 11am-3am","$$$$","Al Fresco, Kid Friendly, Drinks, Private Functions","Dhoby Ghaut","33 Cuppage RoadSingapore (229458) ","229458","1.30214427117673","103.84028527953"
"Chao Chao Gyoza @ Royal Square","Bar, Japanese","Mon-Sun: 11:30am-11:30pm","$$","Al Fresco, Casual Dining, Kid Friendly, Drinks","Novena","103 Irrawaddy Road#01-05Royal Square@Novena SquareSingapore (329566) ","329566","1.32057156550961","103.843219261065"
"Chapter 55","Bar, Italian","Mon-Fri: 11:30am-3pm, 5:45-10pmSat-Sun, Eve of PH & PH: 11:30am-10pm","$$$$","Al Fresco, Casual Dining, Kid Friendly, Private Functions","Tiong Bahru","55 Tiong Bahru Road#01-37Singapore (160055) ","160055","1.28441396459751","103.83413547764"
"Char","Chinese, Local","Tue-Sun: 11:30am-2:30pm (Last Order at 2pm), 5:30-9:30pm (Last order at 8:45pm) Closed Monday","$$","Casual Dining, Kid Friendly, Private Functions, Large Parties (16+)","Jalan Besar","363 Jalan BesarSingapore (208994) ","208994","1.31269672954752","103.859456068218"
"Charcoal Grill and Bar by Kurry Korner","Indian","Mon-Fri: 11:30am-2:30pm, 5:30-10:30pmSat-Sun: 11:30am-10:30pm","$$","Business Meetings, Fine Dining, Casual Dining, Drinks, Private Functions, Quiet Dinner","River Valley","417 River Valley RoadSingapore (248316) ","248316","1.29518853283912","103.829692267218"
"Charlie's Restaurant & Bar","Spanish","Mon-Sun: 11am-12am","$$","Business Meetings, City Views, Fine Dining, Casual Dining, Kid Friendly, Drinks, Private Functions, Quiet Dinner, Large Parties (16+)","Boat Quay, Raffles Place","32 Boat QuaySingapore (049821) ","049821","1.28612369200833","103.849768282843"
"Chatterbox","Chinese, Vegetarian Friendly, Local","Mon-Sun: 11:30am-2:30pm, 6-10:30pm (Last Order: 10pm)","$$$","Business Meetings, Casual Dining, Kid Friendly, Private Functions","Orchard","333 Orchard Road#05-03Mandarin Orchard Hotel SingaporeSingapore (238867) ","238867","1.30206450556085","103.836340953476"
"Chef's Table by Chef Stephan","Modern European, French, Fusion, Vegetarian Friendly","Tue-Thu: 6-10:30pmFri: 12-3pm, 6-10:30pmSat: 6-10:30pmClosed Monday & Sunday","$$$$","Business Meetings, Casual Dining, Drinks, Private Functions, Romantic Dates","Tanjong Pagar","61 Tras StreetSingapore (079000) ","079000","1.2778017500758","103.844486775431"
"Chengdu 成都","Chinese, Fusion, Vegetarian Friendly, Zi Char","Mon-Sat: 11am-3pm, 5-10:30pmClosed Sunday","$$","Business Meetings, Casual Dining, Kid Friendly, Large Parties (16+)","Raffles Place, Telok Ayer","74 Amoy StreetSingapore (069893) ","069893","1.28038062433863","103.846587590564"
"Cherki","Fusion, Seafood, Peranakan, Modern Asian","Mon-Sat: 5-10pmClosed Sunday","$$$","Business Meetings, Casual Dining, Drinks, Quiet Dinner, Romantic Dates","Tanjong Pagar","1 Straits Boulevard #01-02Singapore Chinese Cultural CentreSingapore (018906) ","018906","1.27582919242099","103.849576388626"
"Cherry Garden","Chinese, Dim Sum","Wed-Sun: 12-2:30pm, 6:30-10pmSat-Sun & PH: 11am-1pm (1st Seating), 1:30-3:30pm (2nd Seating), 6:30-10pmClosed Monday & Tuesday","$$$$","Business Meetings, Private Functions","City Hall, Marina Bay, Promenade, Marina Central","5 Raffles AvenueMarina SquareThe Mandarin OrientalSingapore (039797) ","039797","1.29055546605198","103.858457381474"
"Cheval Cafe | Bar | Bistro (Bukit Merah)","Modern European, All-Day Breakfast, Cafe","Mon-Sun: 11am-10:30pm","$$","Al Fresco, Business Meetings, Casual Dining, Kid Friendly, Drinks, Private Functions, Quiet Dinner, Romantic Dates","Bukit Merah","3500A Bukit Merah CentralSingapore (159837) ","159837","1.28205539635574","103.818078212813"
"Cheval Cafe | Bar | Bistro (Kensington)","Bar, Cafe, Burgers","Mon-Sun: 11am-10:30pm","$$","Al Fresco, Business Meetings, Casual Dining, Kid Friendly, Drinks, Quiet Dinner, Romantic Dates","Tai Seng","2 Jalan Lokam#01-51/52Kensington Square Singapore (537846)","537846","1.34560719747232","103.882695128109"
"Cheval Cafe | Bar | Bistro (Kranji)","Seafood, Vegetarian Friendly, Cafe","Sun-Thu: 11am-12amFri-Sat and PH Eve: 11am - 2am","$$","Al Fresco, Casual Dining, Kid Friendly, Private Functions, Large Parties (16+)","Woodlands","1 Equestrian WalkSingapore Turf Club Riding CentreSingapore (737863) ","737863","1.42879486443595","103.767682848078"
"Cheval Chi Bao","Chinese","Mon-Sun: 11:30am-10:30pm","$$","Casual Dining, Kid Friendly, Drinks, Large Parties (16+)","Bukit Merah","3500A Bukit Merah CentralSports Lifestyle CentreSingapore (159838) ","159838","1.28205539635574","103.818078212813"
"Cheval Whiskey Cocktail Bar","Bar",NA,"$$","Business Meetings, Casual Dining, Drinks, Private Functions, Quiet Dinner","Tai Seng","2 Jalan Lokam#01-53Kensington SquareSingapore (537846) ","537846","1.34560719747232","103.882695128109"
"Chez West","Modern European, French",NA,"$$","Drinks, Quiet Dinner","Choa Chu Kang","1 Choa Chu Kang GroveBlk 2, Level 3ITE College WestSingapore (688236) ","688236","1.37527500765096","103.752407481466"
"Chicken Up (Tanjong Pagar)","Korean","Mon-Thu: 5:30pm-2amFri-Sat: 5:30pm-3amSun: 5:30pm-12am","$$","Business Meetings, Casual Dining, Drinks, Private Functions, Large Parties (16+)","Tanjong Pagar","48 Tanjong Pagar Road#01-01Singapore (088469) ","088469","1.27924933269854","103.843652583449"
"Chico Loco","Bar, International, Mexican","Mon-Sat: 11:30am-10pmClosed Sunday","$$","Business Meetings, Casual Dining, Drinks, Quiet Dinner","Telok Ayer","102 Amoy StreetSingapore (069922) ","069922","1.28168763505227","103.847282032792"
"Chinatown Seafood Restaurant (Ba Dao Guan)","Bar, Chinese, Seafood",NA,"$$","Al Fresco, Business Meetings, City Views, Casual Dining, Drinks","Chinatown","2 Trengganu StreetSingapore (058456) ","058456","1.28332382452873","103.844223341182"
"Chinoiserie","Modern European, Chinese, Fusion, Modern Asian","Mon-Sun: 12-2:30pm (Last Order: 2pm), 6-10:30pm (Last Order: 9pm)","$$$$$","Business Meetings, Fine Dining, Drinks, Private Functions, Quiet Dinner, Romantic Dates","Marina Bay","2 Bayfront AvenueB1-15The Shoppes at Marina Bay SandsSingapore (018972) ","018972","1.28332249857386","103.857629111139"
"Chojiro","Japanese, Seafood","Mon-Fri: 11am-3pm, 5-10pmSat: 3-10pmClosed Sunday","$$","Business Meetings, City Views, Casual Dining, Kid Friendly, Drinks","Telok Ayer","23 Church Street#01-04/05Capital SquareSingapore (049481) ","049481","1.28362986367061","103.849100725691"
"Chong Qing Grilled Fish (Bugis)","Chinese","Mon-Sun: 12pm-2am","$$$","Al Fresco, Casual Dining, Kid Friendly, Private Functions, Romantic Dates","Bugis","1 Liang Seah Street#01-05/06Singapore (189022) ","189022","1.29791212335193","103.856336963143"
"Chong Qing Grilled Fish (Upp. Thomson)","Chinese","Mon-Sun: 12pm-2am","$$$","Al Fresco, Casual Dining, Drinks, Quiet Dinner, Romantic Dates","Bishan","205 Upper Thomson RoadSingapore (574345) ","574345","1.35198151506293","103.835132186115"
"Chopsticks by The Asian Kitchen (Delivery)","Chinese",NA,"$$",NA,"Raffles Place","1 Raffles Quay#B2-04/07North TowerSingapore (048583) ","048583","1.2815008889802","103.85216045363"
"Chopsuey Cafe Dempsey","Chinese, Vegetarian Friendly, Dim Sum, Southeast Asian, Cafe, Modern Asian","Mon-Thu: 11:30am-10pm (Last Order: 9pm)Friday: 11:30am-10:30pm (Last Order: 9:30pm)Saturday: 11am-10:30pm (Last Order: 9:30pm)Sunday: 11am-10pm (Last Order: 9pm)","$$$","Al Fresco, Business Meetings, Casual Dining, Drinks, Quiet Dinner, Romantic Dates","Dempsey","10 Dempsey Road #01-23 Singapore (247700) ","247700","1.30329767270241","103.81041169174"
"Choupinette","French, All-Day Breakfast, Cafe","Mon-Sat: 8am-10:30pmSun: 8am-5pm1-31 JanuaryMon-Sun: 8am-4pm","$$","Al Fresco, Business Meetings, Casual Dining, Kid Friendly, Drinks, Pet Friendly, Private Functions, Romantic Dates","Bukit Timah","607 Bukit Timah Road#01-01Singapore (269708) ","269708","1.32425806760882","103.80954154329"
"Chui Huay Lim Teochew Cuisine","Chinese, Zi Char","Mon-Sun: 11:30am-2:30pm (Last Order: 2pm), 5:30-10pm (Last Order: 9:15pm)","$$$","Business Meetings, Kid Friendly, Private Functions","Newton","190 Keng Lee Road#01-02Chui Huay Lim ClubSingapore (308409) ","308409","1.31387787363584","103.841364046558"
"Chura Sushi Bar","Bar, Japanese","Mon-Sun: 11am-10pm","$$","Business Meetings, Casual Dining, Drinks, Quiet Dinner, Romantic Dates","Promenade","3 Temasek Boulevard #B1-122A Suntec City Mall Singapore (038983) ","038983","1.29432416524256","103.860371993025"
"CIA ToP Table","American, French, International","Tue-Thu: 11:30am-1pmFri-Sat: 6-8:30pmClosed Monday & Sunday","$$","Business Meetings, Fine Dining, Casual Dining, Romantic Dates","Tampines","Block 31 Tampines Avenue 1Level 3Temasek Culinary AcademyTemasek PolytechnicSingapore (529757) ","529757","1.34594607020383","103.932631490034"
"Cibo Italiano","Bar, Italian, Vegetarian Friendly","Mon-Sun: 11am-2pm, 5-10:30pm","$$","Al Fresco, Business Meetings, Casual Dining, Kid Friendly, Drinks, Pet Friendly","River Valley","428 River Valley RoadSingapore (248327) ","248327","1.29446098581955","103.8276209036"
"CIN CIN","Bar, Vegetarian Friendly","Mon-Fri: 5-10:30pmSat: 3-10:30pmClosed Sunday","$$$","Business Meetings, Drinks, Private Functions","Tanjong Pagar","100 Peck Seah Street#01-02Oasia Hotel DowntownSingapore (079333) ","079333","1.27585064007043","103.844244849875"
"Citrus By The Pool","Fusion, Halal Certified, Cafe","Mon-Thu: 11am-10:30pm (Last order at 9:30pm)Fri-Sun & Public Holidays: 11am-11pm (Last order at 10pm)","$$","Business Meetings, Casual Dining, Kid Friendly, Private Functions","Woodlands","3 Woodlands Street 13#3-3AWoodlands Swimming ComplexSingapore (738600) ","738600","1.43449712110305","103.77936371276"
"City Hot Pot Shabu Shabu (Guoco Tower)","Chinese, Seafood, Local, Steamboat","Mon-Sun: 11:15am-3pm, 5-10pm","$$","Business Meetings, City Views, Casual Dining, Kid Friendly, Drinks, Large Parties (16+)","Tanjong Pagar","7 Wallich Street#B1-04/05Guocco TowerSingapore (078884) ","078884","1.27672492702287","103.845155395387"
"City Hot Pot Shabu Shabu (Raffles Place)","Chinese, Vegetarian Friendly, Local, Steamboat","Mon-Sun: 11:30am-3pm, 5:30-10pm","$$","Business Meetings, Casual Dining, Kid Friendly, Private Functions, Large Parties (16+)","Raffles Place","1 Raffles Place#04-26/27/28One Raffles PlaceSingapore (048616) ","048616","1.28424656418639","103.851050382307"
"Clan 7™","Chinese, Seafood, Vegetarian Friendly, Dim Sum","Mon-Sun: 11:30am-10pm (Last Order: 9:30pm)","$$$","Business Meetings, Fine Dining, Casual Dining, Drinks, Private Functions, Quiet Dinner, Romantic Dates","Serangoon","151 Lorong Chuan#01-11NTP+Singapore (556741) ","556741","1.35206196118771","103.860698338514"
"Clan Cafe","Cafe",NA,"$$","Business Meetings, Casual Dining, Private Functions","Chinatown, Keong Saik, Outram","31 Bukit Pasoh RoadSingapore (089845) ","089845","1.27932863390139","103.840379699423"
"the Cliff (Sofitel Sentosa)","Italian, Vegetarian Friendly","Mon-Sun: 12-9:30pm","$$$","Al Fresco, Business Meetings, Fine Dining, Drinks, Private Functions, Quiet Dinner","Sentosa","2 Bukit Manis RoadSofitel Singapore Sentosa Resort & SpaSingapore (099891) ","099891","1.24589687601798","103.827569393578"
"The Clifford Pier","Chinese, Malaysian, Local","The Clifford Pier Heritage Dim Sum BrunchSat-Sun: 10:30am-12:30pm (1st Seating), 1:30-3:30pm (2nd Seating)","$$$","Al Fresco, Casual Dining, Drinks, Romantic Dates","Fullerton, Raffles Place","80 Collyer QuayLobby LevelThe Fullerton Bay HotelSingapore (049326) ","049326","1.28396667186675","103.853480198547"
"Clinton Street Baking Company","American, All-Day Breakfast, Cafe","Mon-Thu: 8am-4pmFri-Sat: 8am-9pmSun: 8am-6pm(For Public Holidays, opening hours are subject to change)","$$","Business Meetings, Casual Dining, Drinks, Quiet Dinner","Bugis","31 Purvis StreetSingapore (188608) ","188608","1.29632360061568","103.855127958906"
"Clos Pasoh","French, Vegetarian Friendly","Tue: 4:30-11pmWed-Sat: 12-11pmClosed Monday and Sunday","$$$","Al Fresco, Business Meetings, Casual Dining, Private Functions, Quiet Dinner, Romantic Dates","Outram","48A Bukit Pasoh RoadLevel 2Singapore (089859) ","089859","1.27982756253212","103.840447832361"
"Cloudstreet","Australian, Vegetarian Friendly",NA,"$$$$","Fine Dining, Drinks, Quiet Dinner, Romantic Dates","Telok Ayer","84 Amoy StreetSingapore (069903) ","069903","1.28089328688774","103.846794521948"
"Club Street Wine Room","Bar, Modern European, BBQ","Tue-Wed: 4-10:30pmThu-Sat: 12-10:30 pmSun: 12-8:30pmClosed Monday","$$$$","Casual Dining, Drinks, Private Functions, Romantic Dates","Telok Ayer","87 Club Street#01-01Singapore (069455) ","069455","1.2816058591164","103.845772173834"
"Coastes","Bar, Seafood","Mon-Thu: 9am-9:30pmFri-Sun: 9am-10:30pm","$$$","Al Fresco, Business Meetings, Casual Dining, Kid Friendly, Drinks, Pet Friendly, Private Functions, Quiet Dinner","Sentosa","50 Siloso Beach Walk#01-06Singapore (099000) ","099000","1.25250724545676","103.815987203494"
"COCA at Kallang Leisure Park","Buffet, Chinese, Thai, Seafood, Local, Steamboat","Mon-Fri: 11:30am-3pm (Lunch Last Order: 2:30pm), 6-10:30pm (Dinner Last Order: 9:45pm)Sat & Sun: 11:15am–10:30pm(Lunch Last Order: 3:45pm, Dinner Last Order: 9:45pm)","$$$","Casual Dining, Kid Friendly","Kallang","5 Stadium Walk#02-01Singapore (397693) ","397693","1.30192883841134","103.876208170362"
"COCA at Suntec","Buffet, Chinese, Thai, Local, Steamboat","Mon-Fri: 11:15am-3pm (Last Order: 2:30pm), 6-10:30pm (Last Order: 9:45pm)Sat & Sun: 11:15am-10:30pm (Lunch Last Order: 3:45pm, Dinner Last Order: 9:45pm)","$$$","Business Meetings, Casual Dining, Kid Friendly, Private Functions","City Hall, Promenade, Esplanade, Marina Central","3 Temasek Boulevard#02-440Suntec City MallSingapore (038983) ","038983","1.29432416524256","103.860371993025"
"COCA at Takashimaya","Buffet, Chinese, Thai, Seafood, Local, Steamboat","Mon-Fri: 11:30am-3pm (Last Order: 2:30pm), 6-10:30pm (Last Order: 9:45pm)Sat-Sun: 11:15am-10:30pm (Lunch Last Order: 3:45pm | Dinner Last Order: 9:45pm)","$$$","Casual Dining, Kid Friendly","Orchard","391B Orchard Road#04-23Ngee Ann CitySingapore (238874) ","238874","1.30242417189411","103.834676124723"
"Cochon","Bar, Burgers, BBQ","Tue-Sat: 3-10pmClosed Monday & Sunday","$$$","Al Fresco, Casual Dining, Kid Friendly, Drinks, Pet Friendly, Romantic Dates","Kallang","465 Geylang RoadSingapore (389424) ","389424","1.31349710348658","103.882929685641"
"Cocokata","Thai, Zi Char","Mon-Sun: 11:30am-10:30pm","$$","Casual Dining, Kid Friendly, Drinks","Tampines","Blk 139 Tampines Street 11#01-08Singapore (521139) ","521139","1.34607675043696","103.944284625086"
"CoComelon at Clove","International, Vegetarian Friendly, Cafe","Mon-Thu: 11am-8pmFri-Sun: 10am-9pm","$$$","Business Meetings, Casual Dining, Kid Friendly, Private Functions","City Hall","2 Stamford RoadLevel 2Swissotel The StamfordSingapore (178882) ","178882","1.29326862813347","103.8533651777"
"The Coconut Club","Local, Southeast Asian","Mon: 11am-3pmTue-Sun: 11am-3pm, 6-9:30pm","$$","Al Fresco, Casual Dining, Kid Friendly, Drinks","Telok Ayer","28 Ann Siang RoadSingapore (069708) ","069708","1.280761494595","103.845765352032"
"The Coffee Academics (Millenia Walk)","American, Fusion, All-Day Breakfast, Vegetarian Friendly, Cafe, Burgers","Mon-Thu: 8am-8:30pm (Last Order 8pm)Fri-Sat: 9am-9pm (Last Order 8:30pm)Sun: 9am-8:30pm (Last Order 8pm)","$$","Business Meetings, Casual Dining, Drinks, Quiet Dinner, Romantic Dates","Promenade","9 Raffles Boulevard#01-26Millenia WalkSingapore (039596) ","039596","1.29260544462492","103.859724944443"
"The Coffee Academics (Raffles City)","All-Day Breakfast, Cafe, Burgers","Sun-Thu: 9am-8:30pm (Last Order 8pm)Fri-Sat: 9am-9pm (Last Order 8:30pm)","$$$","Casual Dining, Kid Friendly, Drinks, Quiet Dinner","City Hall","252 North Bridge Road#B1-12Raffles City Shopping CentreSingapore (179103) ","179103","1.29376028134073","103.852768324281"
"The Coffee Academics (Scotts Square)","All-Day Breakfast, Cafe, Burgers","Sun-Thu: 9am-8:30pm (Last Order 8pm)Fri-Sat: 9am-9pm (Last Order 8:30pm)","$$$","Business Meetings, Casual Dining, Kid Friendly, Drinks, Quiet Dinner","Orchard","6 Scotts Road#02-01/#02-02Scotts SquareSingapore (228209) ","228209","1.30585582603508","103.832984356543"
"Collezione Lan","Italian, Steakhouse, Vegetarian Friendly","Tue-Fri: 4:30-10pmSat-Sun & PH: 12-10pmClosed Monday","$$","Business Meetings, Casual Dining, Kid Friendly, Private Functions, Quiet Dinner, Romantic Dates","Kallang","83 Geylang RoadSingapore (389200) ","389200","1.31081213463953","103.872966628179"
"COLLIN'S® (Cineleisure)","Seafood, Steakhouse","Mon-Sun: 11am-11pm (Last Order: 10pm)","$$","Business Meetings, Casual Dining, Kid Friendly","Orchard","8 Grange Road#B1-08/09Cineleisure OrchardSingapore (239695) ","239695","1.30149743415611","103.836444791568"
"COLLIN'S® (Funan)","Seafood, Steakhouse","Mon-Sun: 11am-11pm (Last Order: 10pm)","$$","Business Meetings, Casual Dining, Kid Friendly","City Hall","107 North Bridge Road#01-15Funan MallSingapore (179105) ","179105","1.29124400604241","103.849984790048"
"COLLIN'S® (NTP+)","Steakhouse","Mon-Sun: 11am-10:30pm","$$","Business Meetings, Casual Dining, Kid Friendly, Drinks, Quiet Dinner, Romantic Dates","Serangoon","151 Lorong Chuan#01-10New Tech Park Lobby ASingapore (556741) ","556741","1.35206196118771","103.860698338514"
"COLLIN’S® (Changi Airport)","American, British, Burgers, BBQ","Sun-Thu & PH: 10am-11pm (Last Order: 10pm)Fri, Sat & Eve of PH: 10am-12am (Last Order: 11pm)","$$$","Casual Dining, Kid Friendly, Quiet Dinner","Changi","65 Airport Boulevard #03-21 Changi Airport Terminal 3 Singapore (819663) ","819663","1.35588946177484","103.985884119622"
"COLLIN’S®️ (Great World)","Seafood, Steakhouse","Mon-Sun: 11am-11pm (Last Order: 10pm)","$$","Business Meetings, Casual Dining, Kid Friendly","River Valley","1 Kim Seng Promenade#B1-106/107Great WorldSingapore (237994) ","237994","1.2934759620704","103.831975865363"
"COLLIN’S®️ (Marina Square)","Steakhouse","Mon-Sun: 11am-11pm","$$","Business Meetings, Casual Dining, Kid Friendly, Drinks, Quiet Dinner, Romantic Dates","Promenade","6 Raffles Boulevard#01-204/205Marina SquareSingapore (039594) ","039594","1.29097199909542","103.857575411708"
"COLLIN’S®️ (T3)","Seafood, Steakhouse","Sun-Thu & PH: 10am-10pm (Last Order: 9pm)Fri-Sat & Eve of PH: 10am-11pm (Last Order: 10pm)","$$","Business Meetings, Casual Dining, Kid Friendly","Changi","65 Airport Boulevard#03-21Changi Airport Terminal 3Singapore (819663) ","819663","1.35588946177484","103.985884119622"
"Colony (The Ritz-Carlton, Millenia Singapore)","Buffet, Chinese, Japanese, Indian, Indonesian, Malaysian, International, Seafood, British, Vegetarian Friendly, Local, Dim Sum, Southeast Asian","Mon-Sun: 12-9pm","$$$","Business Meetings, Casual Dining, Kid Friendly, Private Functions, Romantic Dates, Large Parties (16+)","City Hall, Promenade, Marina Central","7 Raffles AvenueLevel 3 Singapore (039799) ","039799","1.29073052443159","103.860099444172"
"Columbus Coffee Co.","All-Day Breakfast, Cafe","Tue-Sat: 9am-10pmSun: 9am-7pmClosed Monday","$$","Casual Dining","Thomson","220 Upper Thomson RoadSingapore (574352) ","574352","1.35291312443482","103.835415866944"
"Comida Mexicana","Mexican","Tue-Sun: 11:30am-2pm, 6-10pmClosed Monday","$$","Business Meetings, Casual Dining, Kid Friendly, Drinks, Private Functions","East Coast","404 East Coast RoadSingapore (428998) ","428998","1.30873478075801","103.912140669101"
"Common Man Stan","Australian, All-Day Breakfast, Vegetarian Friendly, Cafe","Mon-Sun: 7:30am-5:30pm","$$$","Casual Dining, Drinks, Private Functions, Romantic Dates","Chinatown, Raffles Place, Telok Ayer","11/12 Stanley Street Singapore (068730) ","068730","1.28026441764321","103.84787555932"
"Communal Coffee","All-Day Breakfast, Cafe",NA,"$$","Al Fresco, Business Meetings, Casual Dining, Kid Friendly, Drinks, Pet Friendly, Private Functions, Quiet Dinner, Large Parties (16+)","Dhoby Ghaut, Bugis","60 Prinsep Street Singapore (188664) ","188664","1.29970279376036","103.849887319583"
"Como Cuisine","Modern European, International, Vegetarian Friendly, Cafe","Mon-Fri: 9-11:30am, 12-2:30pm, 6-9pmSat-Sun: 8am-3:30pm","$$$","Al Fresco, Casual Dining, Kid Friendly, Private Functions, Quiet Dinner, Romantic Dates","Dempsey","18A Dempsey Road Singapore (249677) ","249677","1.30569694194069","103.810755832705"
"Conrad Lobby Lounge","Bar","Mon-Sun: 10am-10:30pm","$$","Business Meetings, Drinks, Quiet Dinner","City Hall, Marina Bay, Promenade","2 Temasek Boulevard Conrad Centennial Hotel Singapore (038982) ","038982","1.29349139796574","103.858779513419"
"Cook & Brew","Bar, Modern European, Fusion, Vegetarian Friendly, Modern Asian","Mon-Sun: 11:30am-10:30pm","$$$","Al Fresco, Business Meetings, City Views, Casual Dining, Kid Friendly, Drinks, Private Functions, Romantic Dates","Marina Bay, Raffles Place","12 Marina View Level 33 The Westin Singapore Asia Square Tower 2 Singapore (018961) ","018961","1.27822949964567","103.850812513482"
"Cool Cats","Bar","Thu-Sat: 7pm-1amClosed Monday to Wednesday & Sunday","$$","Drinks","City Hall","32 Beach Road Singapore (189764) ","189764","1.29415243891628","103.855108379944"
"The Cooperage","Bar, Japanese, French, Italian","Mon-Sat: 4pm-12amClosed Sunday","$$","Business Meetings, Casual Dining, Drinks, Private Functions","Clarke Quay","42 Hong Kong StreetSingapore (059681) ","059681","1.28724893939021","103.847557053538"
"Copper","Modern Asian","Mon-Sat: 4-11pmClosed Sunday","$$$","Business Meetings, Casual Dining, Drinks, Quiet Dinner","Orchard","167 Penang Road #01-01 Winsland House Singapore (238462) ","238462","1.2995421111902","103.840858049903"
"Copper Chimney (Syed Alwi)","Indian, Vegetarian Friendly","Mon-Sun: 11:30am-11:30pm","$$","Business Meetings, Casual Dining, Private Functions, Large Parties (16+)","Jalan Besar","100 Syed Alwi RoadSingapore (207676) ","207676","1.30960088648314","103.855275631946"
"Coq & Balls @ Cross Street","American, Bar, Vegetarian Friendly, Burgers","Mon-Fri: 11:30am-10:30pmSat: 5-10:30pmClosed Sunday and PH","$$","Al Fresco, Casual Dining, Kid Friendly, Drinks, Private Functions","Chinatown, Telok Ayer","20 Cross Street#01-19/20/21/22Singapore (048422) ","048422","1.28374576252035","103.847469684006"
"Coq & Balls @ Tiong Bahru","Bar","Mon-Sun: 12-10:30pm","$$","Casual Dining, Kid Friendly, Drinks, Pet Friendly, Private Functions, Large Parties (16+)","Tiong Bahru","6 Kim Tian Road Kai Fook MansionSingapore (169246) ","169246","1.28514430857013","103.829280379311"
"Coriander Leaf @ CHIJMES","International","Mon-Fri: 12-2:30pm, 6-10:30pmSaturday 6-10:30pmClosed Sunday & Selected PH","$$$$","Business Meetings, Fine Dining, Casual Dining, Drinks, Private Functions, Quiet Dinner","City Hall, CHIJMES","30 Victoria Street #02-01 CHIJMES Singapore (187996) ","187996","1.29479670956332","103.852573366033"
"Corner House","Bar, Modern European, French, Vegetarian Friendly",NA,"$$$$$","Business Meetings, Fine Dining, Casual Dining, Drinks, Private Functions, Quiet Dinner, Romantic Dates","Bukit Timah, Tanglin","1 Cluny Road Singapore Botanic Gardens EJH Corner House (Nassim Gate Entrance) Singapore (259569) ","259569","1.32215664251126","103.818185872471"
"Coucou (Swiss Restaurant)","Bar, Modern European","Mon-Sun: 12-2:30pm, 6-10:30pm","$$$$","Al Fresco, Casual Dining, Drinks, Private Functions, Romantic Dates","Tanjong Pagar","9 Craig Road #01-01 Singapore (089669) ","089669","1.2777121177844","103.842805537195"
"Coucou Hotpot.Brew Tea (Suntec City)","Chinese, Southeast Asian, Steamboat","Mon-Sun: 11am-11pm","$$$","Business Meetings, Casual Dining, Drinks, Private Functions, Romantic Dates","Promenade","3 Temasek Boulevard#03-332 to 337Suntec City MallSingapore (038983) ","038983","1.29432416524256","103.860371993025"
"The Courtyard","Bar, Japanese, Indian, International","A La Carte: Mon-Sun: 9am-6pm (Last Order: 5:30pm)Afternoon Tea: Mon-Sun: 3-5:30pm","$$$","Casual Dining, Drinks","Fullerton, Raffles Place","1 Fullerton SquareThe Fullerton Hotel SingaporeSingapore (049178) ","049178","1.28622855041207","103.853028067544"
"Crossings Cafe","All-Day Breakfast, Cafe, Burgers","Tue-Sun: 8am-10pmClosed Monday","$$","Casual Dining, Kid Friendly, Drinks, Large Parties (16+)","Bugis","55 Waterloo Street #01-01 Catholic Centre Building Singapore (187954) ","187954","1.29826166207725","103.851521091878"
"Crystal Jade Dining IN","Chinese, Vegetarian Friendly","Mon-Fri: 11am–3pm, 6–9:30pm Sat, Sun & PH: 10:30am–3:30pm, 6–9:30pm","$$$$","Business Meetings, Fine Dining, Drinks, Private Functions","Harbourfront","1 Harbourfront Walk #01-112 VivoCity Singapore (098585) ","098585","1.26427054261311","103.822476140813"
"Crystal Jade Golden Palace","Chinese","Mon-Fri: 11am–3pm, 6–9:30pm Sat, Sun & PH: 10:30am–3:30pm, 6–9:30pm","$$$$","Business Meetings, Fine Dining, Private Functions","Orchard","290 Orchard Road #05-22 The Paragon Singapore (238859) ","238859","1.30375855987932","103.835240308481"
"Crystal Jade Hong Kong Kitchen (Causeway Point)","Chinese","Mon–Fri: 11am–10pm (Last Order: 9:30pm)Sat-Sun & PH: 10:30am–10pm (Last Order: 9:30pm)","$$","Business Meetings, Casual Dining, Kid Friendly, Private Functions","Woodlands","1 Woodlands Square #05-10 Causeway Point Singapore (738099) ","738099","1.43592702612215","103.786047454862"
"Crystal Jade Hong Kong Kitchen (Great World City)","Chinese","Mon–Fri: 11am–10pm (Last Order: 9:30pm)Sat-Sun & PH: 10:30am–10pm (Last Order: 9:30pm)","$$","Business Meetings, Casual Dining, Kid Friendly, Private Functions","River Valley","1 Kim Seng Promenade #03-127 Great World City Singapore (237994) ","237994","1.2934759620704","103.831975865363"
"Crystal Jade Hong Kong Kitchen (Holland Village)","Chinese","Mon–Sun & PH: 9:30am-10pm (Last Order: 9:30pm)","$$","Business Meetings, Casual Dining, Kid Friendly, Private Functions","Holland Village","2 Lorong Mambong Holland Village Singapore (277671) ","277671","1.31100447525253","103.795313885882"
"Crystal Jade Hong Kong Kitchen (Suntec City)","Chinese","Mon–Fri: 11am–10pm (Last Order: 9:30pm)Sat-Sun & PH: 10:30am–10pm (Last Order: 9:30pm)","$$","Business Meetings, Casual Dining, Drinks, Private Functions","City Hall, Promenade, Esplanade, Marina Central","3 Temasek Boulevard#B1-112 Suntec City Mall Singapore (038983) ","038983","1.29432416524256","103.860371993025"
"Crystal Jade Hong Kong Kitchen (Takashimaya)","Chinese","Mon–Fri: 11am–10pm (Last Order: 9:30pm)Sat-Sun & PH: 10:30am–10pm (Last Order: 9:30pm)","$$","Business Meetings, Casual Dining, Kid Friendly, Private Functions","Orchard","391 Orchard Road #B2-38 Takashimaya Shopping Centre Singapore (238872) ","238872","1.30242417189411","103.834676124723"
"Crystal Jade Hong Kong Kitchen (Tampines Mall)","Chinese","Mon–Fri: 11am–10pm (Last Order: 9:30pm)Sat-Sun & PH: 10:30am–10pm (Last Order: 9:30pm)","$$","Business Meetings, Casual Dining, Drinks, Private Functions","Tampines","4 Tampines Central 5#B1-11 Tampines Mall Singapore (529510) ","529510","1.35267232210231","103.944387981063"
"Crystal Jade Hong Kong Kitchen (The Clementi Mall)","Chinese","Mon–Fri: 11am–10pm (Last Order: 9:30pm)Sat-Sun & PH: 10:30am–10pm (Last Order: 9:30pm)","$$","Business Meetings, Casual Dining, Kid Friendly, Private Functions","Clementi","3155 Commonwealth Avenue West#03-54 The Clementi Mall Singapore (129588) ","129588","1.31485322424684","103.764248201297"
"Crystal Jade Hong Kong Kitchen (Westgate)","Chinese","Mon–Fri: 11am–10pm (Last Order: 9:30pm)Sat-Sun & PH: 10:30am–10pm (Last Order: 9:30pm)","$$","Business Meetings, Casual Dining, Drinks, Private Functions","Jurong","3 Gateway Drive #04-42 Westgate Mall Singapore (608532) ","608532","1.33415752008876","103.742766489597"
"Crystal Jade Jiang Nan (VivoCity)","Chinese","Mon-Sun: 11:30am-2:30pm (Last Order: 2:15pm), 6-9:30pm (Last Order: 9pm)","$$","Business Meetings, Casual Dining, Private Functions, Large Parties (16+)","Harbourfront","1 Harbourfront Walk#01-52VivoCitySingapore (098585) ","098585","1.26427054261311","103.822476140813"
"Crystal Jade La Mian Xiao Long Bao (Bugis)","Chinese","Mon-Sun & PH: 11am-10pm (Last Order: 9:30pm)","$$","Business Meetings, Casual Dining, Kid Friendly, Private Functions","Bugis","200 Victoria Street#B1-04ABugis JunctionSingapore (188021) ","188021","1.29911287475873","103.855411173758"
"Crystal Jade La Mian Xiao Long Bao (Holland Village)","Chinese","Mon-Sun & PH: 11am-10pm (Last Order: 9:30pm)","$$","Al Fresco, Casual Dining, Kid Friendly","Holland Village","241 Holland AvenueSingapore (278976) ","278976","1.31098227956022","103.795633795323"
"Crystal Jade La Mian Xiao Long Bao (Jurong Point)","Chinese","Mon-Fri: 11am-10pm (Last Order: 9:30pm)Sat, Sun & PH: 10:30am-10:30pm (Last Order: 10pm)","$$","Business Meetings, Casual Dining, Kid Friendly, Private Functions, Quiet Dinner","Jurong","1 Jurong West Central 2#03-96Jurong Point JP2Singapore (648886) ","648886","1.33945200436319","103.706685012654"
"Crystal Jade La Mian Xiao Long Bao (Toa Payoh)","Chinese","Mon-Sun & PH: 11am-10pm (Last Order: 9:30pm)","$$","Business Meetings, Casual Dining, Drinks, Private Functions","Toa Payoh","470 Toa Payoh Lorong 6#01-70HDB HubSingapore (310470) ","310470","1.33203473928975","103.849338664495"
"Crystal Jade Palace","Chinese","Mon-Fri: 11am–3pm, 6–9:30pm Sat, Sun & PH: 10:30am–3:30pm, 6–9:30pm","$$$$","Business Meetings, Fine Dining, Private Functions","Orchard","391 Orchard Road#04-19Takashimaya Shopping CenterSingapore (238872) ","238872","1.30242417189411","103.834676124723"
"Cucina Restaurant & Catering","Fusion, Halal Certified","Mon-Sun: 11:30am-3pm, 5-9pm","$$","Business Meetings, Casual Dining, Private Functions, Large Parties (16+)","Kallang","12 Kallang Avenue#02-10Aperia MallSingapore (339511) ","339511","1.3097112065077","103.864326436447"
"CURATE CUCINA PISANA","Italian","Mon-Tue: 5-10pmFri-Sun: 11:30am-3pm, 5-10pmClosed Wednesday and Thursday1 Mar to 20 AprFri-Tue: 11:30am-3pm, 5-10pmClosed Wednesday and Thursday","$$$$","Business Meetings, Drinks, Private Functions","Sentosa","26 Sentosa GatewayThe Forum, Level 1Resorts World SentosaSingapore (098138) ","098138","1.25524547806487","103.820885377493"
"Cure Singapore","Modern European, Vegetarian Friendly","Tue-Wed: 6-10pmThu-Sat: 12-2pm, 6-10pmClosed Monday & Sunday","$$$$","Business Meetings, Fine Dining, Drinks, Private Functions, Romantic Dates","Chinatown","21 Keong Saik RoadSingapore (089128) ","089128","1.27975926237707","103.841347014921"
"Curry Bowl","Indian, Vegetarian Friendly","Mon-Sun: 12-10:30pm","$$","Casual Dining, Kid Friendly, Private Functions","Little India","30 Race Course Lane#01-02/03Singapore (218745) ","218745","1.31012233674354","103.852814779279"
"Cuscaden Bar & Bistro","Fusion, Local, Burgers",NA,"$$","Casual Dining, Drinks, Private Functions","Tanglin","21 Cuscaden Road#B1-11Ming ArcadeSingapore (249720) ","249720","1.30620284633911","103.827951886588"
"Da Long Yi Hot Pot","Chinese, Steamboat",NA,"$$$","Business Meetings, Casual Dining, Kid Friendly, Drinks, Private Functions","Orchard","181 Orchard Road#08-08Orchard CentralSingapore (238896) ","238896","1.30083890839245","103.839434733899"
"Da Paolo Dempsey Restaurant & Bar","Bar, Modern European, Italian, Vegetarian Friendly","Sun-Thu: 8am-10:30pmFri-Sat: 8am-11pm","$$$","Al Fresco, Business Meetings, Casual Dining, Kid Friendly, Drinks, Private Functions, Romantic Dates","Dempsey","8 Dempsey Road#01-13Singapore (247696) ","247696","1.30417511571057","103.809526135738"
"Da Paolo Gastronomia River Valley","Bar, Modern European, Italian, Vegetarian Friendly, Cafe","Sun-Thu: 8am-10:30pmFri-Sat: 8am-11pm","$$$","Business Meetings, Casual Dining, Kid Friendly, Drinks, Private Functions, Romantic Dates","River Valley","1 Kim Seng Promenade#01-163 Great WorldSingapore (237994) ","237994","1.2934759620704","103.831975865363"
"Da Paolo Pizza Bar","Bar, Italian","Mon-Fri: 11:30am-2:30pm, 5:30-10:30pmSat-Sun: 11am-10:30pm","$$$","Al Fresco, Business Meetings, Kid Friendly, Drinks","Holland Village","44 Jalan Merah SagaSingapore (278116) ","278116","1.31192195425084","103.796844037126"
"Daddy's on Madras","Italian, Fusion, Local, Swedish","Tue-Sun: 12-10pmClosed Monday","$$","Al Fresco, Casual Dining, Kid Friendly, Drinks, Private Functions, Romantic Dates","Little India","28 Madras StreetSingapore (208422) ","208422","1.30493424433035","103.853010430734"
"Daisy's Dream Kitchen","Malaysian, Southeast Asian, Peranakan, Cafe","Tue-Sun:11am-2:30pm, 5:30-9pmClosed Monday","$$","Al Fresco, Business Meetings, Casual Dining, Drinks","Bukit Timah","131 Rifle Range Road#01-01Temasek ClubSingapore (588406) ","588406","1.34651918177788","103.780960180418"
"Daizu Cafe","Japanese, Cafe","Mon-Sun: 8am-10pm (Last Order: 9pm)","$$","Al Fresco, Casual Dining, Kid Friendly, Pet Friendly, Private Functions, Quiet Dinner, Romantic Dates","Serangoon","129 Rangoon Road#01-01Singapore (218407) ","218407","1.31529751540999","103.85340037848"
"Dallas Restaurant & Bar (Boat Quay)","American, Mexican, Burgers","Mon-Sun: 11:30am-10:30pm","$$$","Business Meetings, City Views, Casual Dining, Kid Friendly, Drinks, Private Functions, Quiet Dinner, Romantic Dates","Boat Quay","31 Boat QuaySingapore (049820) ","049820","1.28608008449322","103.849799768799"
"Dancing Crab (Orchard Central)","American, Seafood, Cajun",NA,"$$$","Casual Dining, Drinks","Orchard","181 Orchard Road#07-14/15Orchard CentralSingapore (238896) ","238896","1.30083890839245","103.839434733899"
"Dancing Crab (Vivocity)","American, Seafood, Cajun",NA,"$$$","Casual Dining","Harbourfront","1 Harbourfront Walk#03-10VivoCitySingapore (098585) ","098585","1.26427054261311","103.822476140813"
"Dating Fish 鱼你有约“音乐主题餐厅","Bar, Chinese, BBQ","Mon-Sun: 11am-1am","$$","Casual Dining, Kid Friendly, Drinks, Private Functions, Large Parties (16+)","Chinatown","12 Mosque Street#01-01Singapore (059492) ","059492","1.28388230057784","103.844306479798"
"db Bistro & Oyster Bar","French, Seafood","Mon: 12-10pmTue-Fri: 12-11pmSat: 11am-11pmSun: 11am-10pm","$$$","Business Meetings, Kid Friendly, Drinks, Private Functions, Quiet Dinner, Romantic Dates","Marina Bay","2 Bayfront Avenue#B1-48The Shoppes at Marina Bay SandsSingapore (018972) ","018972","1.28332249857386","103.857629111139"
"DD Eatzakaya","Bar, Japanese, Fusion, Modern Asian","Mon-Sat: 3-11pm (Last Booking: 9pm)Closed Sunday","$$","Al Fresco, Business Meetings, Casual Dining, Kid Friendly, Drinks","Chinatown","37, 39 and, 41 Smith StreetSingapore (058952) ","058952",NA,NA
"De Dimension","Cafe","Mon, Wed-Sun: 1-9pmClosed Tuesday","$$","Drinks, Quiet Dinner","Hougang","1187 Upper Serangoon Road#01-17The MidtownSingapore (533971) ","533971","1.37050445523679","103.895291518188"
"Decker Barbecue","American, BBQ","Tue-Thu: 5-10pmFri-Sun: 12-10pmClosed Monday","$$$","Al Fresco, Casual Dining, Pet Friendly","Robertson Quay","60 Robertson Quay#01-17The QuaysideSingapore (238252) ","238252","1.29008339576408","103.839199219609"
"Dejâvu Bar","Bar, Fusion, Cafe","Mon-Sun: 1-10:30pm","$$$$","Business Meetings, Casual Dining, Drinks, Private Functions","Dhoby Ghaut","54 Prinsep Street #01-01Singapore (188684) ","188684","1.29941076340178","103.850006939944"
"Delhi Express Restaurant","Indian, Vegetarian Friendly",NA,"$$$","Casual Dining, Kid Friendly, Large Parties (16+)","Tanjong Pagar","1 Hoe Chiang RoadSingapore (089310) ","089310","1.27394816616137","103.842723044571"
"Deli's Kitchen","Japanese, Fusion, Steakhouse, Cafe",NA,"$$","Casual Dining, Kid Friendly, Drinks, Private Functions","Bugis","91 Bencoolen Street#01-54Sunshine PlazaSingapore (189652) ","189652","1.30034762081549","103.851046168708"
"The Dempsey Cookhouse and Bar","French","Mon-Thu: 12-2pm, 6-9pmFri: 12-2pm, 6-9:30pmSat: 11:30am-3pm, 6-9:30pmSun: 11:30am-3pm, 6-9pm","$$$$","Al Fresco, Business Meetings, Fine Dining, Drinks, Private Functions, Quiet Dinner, Romantic Dates","Dempsey","17D Dempsey RoadSingapore (249676) ","249676","1.30568746618258","103.810193496315"
"Der Biergarten","Bar, German","Sun-Thu: 4pm-2amFri-Sat: 4pm-4am","$$","Al Fresco, City Views, Casual Dining, Drinks, Pet Friendly, Private Functions, Quiet Dinner","Dhoby Ghaut","48 Prinsep Street#01-01Singapore (188677) ","188677","1.29943059843284","103.849831300681"
"Derwish Turkish","Middle Eastern, Vegetarian Friendly","Mon-Sun: 11am-11pm","$$","Al Fresco, Casual Dining, Private Functions, Quiet Dinner, Large Parties (16+)","Bugis","60 Bussorah StreetSingapore (199476) ","199476","1.30149598546598","103.859510482509"
