"licence_numbers","business_name","name_of_license","premise_address","Postal.Code","Lat","Long"
"B02008E000","Sheng siong supermarket","SHENG SIONG SUPERMARKET PTE LTD","845 YISHUN STREET 81 #01-184, S(760845)","760845",1.416079404249,103.835019190337
"B02011P000","Giant","COLD STORAGE SINGAPORE (1983) PTE LTD","524A JELAPANG ROAD #03-13/18, GREENRIDGE SHOPPING CENTRE S(671524)","671524",1.38529556526689,103.766170530147
"B02012N000","Cold storage","COLD STORAGE SINGAPORE (1983) PTE LTD","768 WOODLANDS AVENUE 6 #01-34, WOODLANDS MART S(730768)","730768",1.44564787003157,103.798162285805
"B02015J000","Sheng siong supermarket","SHENG SIONG SUPERMARKET PTE LTD","122 ANG MO KIO AVENUE 3 #01-1753,#01-1757,#01-1755, S(560122)","560122",1.37018860668947,103.843413231524
"B02017C000","Sheng siong supermarket","SHENG SIONG SUPERMARKET PTE LTD","301 WOODLANDS STREET 31 #01-217, S(730301)","730301",1.4315052703273,103.773515659097
"B02020N000","Fairprice","NTUC FAIRPRICE CO-OPERATIVE LTD","1 JELEBU ROAD #02-20,#01-15, BUKIT PANJANG PLAZA S(677743)","677743",1.37989494369864,103.764459887796
"B02021L000","Fairprice","NTUC FAIRPRICE CO-OPERATIVE LTD","30 SEMBAWANG DRIVE #B1-01-03, SUN PLAZA S(757713)","757713",1.44820036592783,103.819530140823
"B02022K000","Fairprice","NTUC FAIRPRICE CO-OPERATIVE LTD","71 WOODLANDS AVENUE 3 #01-01, MARSILING MRT STATION S(739044)","739044",1.43262603485889,103.774051197031
"B02024E000","Fairprice","NTUC FAIRPRICE CO-OPERATIVE LTD","888 WOODLANDS DRIVE 50 #01-757, 888 PLAZA S(730888)","730888",1.43712301500434,103.795314383823
"B02025C000","Fairprice","NTUC FAIRPRICE CO-OPERATIVE LTD","414 YISHUN RING ROAD #01-1853, S(760414)","760414",1.42452849741737,103.846595546746
"B02026B000","Cold storage","COLD STORAGE SINGAPORE (1983) PTE LTD","445 FAJAR ROAD #01-536, S(670445)","670445",1.38357469942896,103.770868459633
"B02032E000","Giant","COLD STORAGE SINGAPORE (1983) PTE LTD","161 ANG MO KIO AVENUE 4 #01-504, S(560161)","560161",1.37416445374568,103.839549130658
"B02034B000","Fairprice","NTUC FAIRPRICE CO-OPERATIVE LTD","30 WOODLANDS AVENUE 1, WOODGROVE S(739065)","739065",1.42938474074212,103.781292115087
"B02035A000","Giant","COLD STORAGE SINGAPORE (1983) PTE LTD","548 WOODLANDS DRIVE 44 #01-37/38, VISTA POINT S(730548)","730548",1.43099931590445,103.794101574732
"B02037X000","Giant","COLD STORAGE SINGAPORE (1983) PTE LTD","883 WOODLANDS STREET 82 #01-498, WOODLANDS NORTH PLAZA S(730883)","730883",1.44283592110679,103.790770766025
"B02038P000","Sheng siong supermarket","SHENG SIONG SUPERMARKET PTE LTD","925 YISHUN CENTRAL 1 #01-211, S(760925)","760925",1.42823085122583,103.837450252524
"B02039N000","Cold storage","COLD STORAGE SINGAPORE (1983) PTE LTD","293 YISHUN STREET 22 #01-261, S(760293)","760293",1.43611425409216,103.837605235958
"B02041C000","Hwa soon heng mini supermarket","Tan Kwee Eng","327 YISHUN RING ROAD #01-1320, S(760327)","760327",1.43007109914643,103.842396446526
"B02060V000","Cold storage","COLD STORAGE SINGAPORE (1983) PTE LTD","256 BANGKIT ROAD #01-69, S(670256)","670256",1.37904775889844,103.773004042544
"B02093B000","Fairprice","NTUC FAIRPRICE CO-OPERATIVE LTD","301 YISHUN AVENUE 2 #01-02, YISHUN MRT STATION S(769093)","769093",1.42951728655037,103.835058273602
"B02099L000","Fairprice","NTUC FAIRPRICE CO-OPERATIVE LTD","849 YISHUN RING ROAD #01-3703, S(760849)","760849",1.41695924255318,103.83535191292
"B03074A000","The butcher","THE BUTCHER (SINGAPORE) PTE. LTD.","44 JALAN MERAH SAGA #01-50, S(278116)","278116",1.31192195425084,103.796844037126
"B03078N000","Fish market","ROSWELL ENTERPRISE PTE. LTD.","34 GREENWOOD AVENUE, S(289236)","289236",1.33183246511303,103.806492461663
"B03099C000","Fairprice","NTUC FAIRPRICE CO-OPERATIVE LTD","628 SENJA ROAD #01-01, S(670628)","670628",1.38509602471476,103.760218434373
"B85098V000","Hao mart","HAO MART PTE. LTD.","239 YISHUN RING ROAD #01-1150, S(760239)","760239",1.43359514649201,103.839685373602
"B92077A000","Cold storage","COLD STORAGE SINGAPORE (1983) PTE LTD","418 YISHUN AVENUE 11 #01-433, S(760418)","760418",1.4248993192219,103.847249789758
"B98014C000","Fairprice","NTUC FAIRPRICE CO-OPERATIVE LTD","215 ANG MO KIO AVENUE 1 #01-877, S(560215)","560215",1.36650575716426,103.84181118487
"B99041L000","Fairprice","NTUC FAIRPRICE CO-OPERATIVE LTD","1 ORCHID CLUB ROAD #01-34, ORCHID COUNTRY CLUB S(769162)","769162",1.41119819060234,103.844438313314
"C02024A000","Cold storage","COLD STORAGE SINGAPORE (1983) PTE LTD","1 FIFTH AVENUE #01-05, GUTHRIE HOUSE S(268802)","268802",1.33077492770988,103.795713392342
"C02025V000","Cold storage","COLD STORAGE SINGAPORE (1983) PTE LTD","293 HOLLAND ROAD, COLD STORAGE JELITA S(278628)","278628",1.31754555939886,103.785850542515
"C02026X000","Giant","COLD STORAGE SINGAPORE (1983) PTE LTD","2 JURONG EAST STREET 21 #01-100, IMM BUILDING S(609601)","609601",1.33491758755437,103.746877132868
"C02032A000","Lotus grocery","LOTUS GROCERY","15 ENG KONG TERRACE, ENG KONG PARK S(598987)","598987",1.33638188559532,103.768386558311
"C02033V000","Sheng siong supermarket","SHENG SIONG SUPERMARKET PTE LTD","154A BUKIT BATOK WEST AVENUE 8 #01-01, S(651154)","651154",1.34737180152613,103.743698106143
"C02034X000","Fairprice","NTUC FAIRPRICE CO-OPERATIVE LTD","587 BUKIT TIMAH ROAD, CORONATION PLAZA S(269707)","269707",1.32383512178759,103.809999570047
"C02035P000","Fairprice","NTUC FAIRPRICE CO-OPERATIVE LTD","451 CLEMENTI AVENUE 3 #01-307, S(120451)","120451",1.31248109025097,103.765476495005
"C02036N000","Fairprice finest","NTUC FAIRPRICE CO-OPERATIVE LTD","1 JALAN ANAK BUKIT #B2-01,#B1-01, BUKIT TIMAH PLAZA S(588996)","588996",1.3386316527745,103.778585430975
"C02037L000","Fairprice","NTUC FAIRPRICE CO-OPERATIVE LTD","135 JURONG EAST STREET 13 #01-337, S(600135)","600135",1.33382294191646,103.739755036969
"C02038K000","Fairprice","NTUC FAIRPRICE CO-OPERATIVE LTD","1 JURONG WEST CENTRAL 2 #B1-09, JURONG POINT S(648886)","648886",1.33945200436319,103.706685012654
"C02040A000","Fairprice","NTUC FAIRPRICE CO-OPERATIVE LTD","63/66 YUNG KUANG ROAD, #01-119/02-119 S(610063) #01-119/02-119","610063",1.33221398206902,103.722691571538
"C02041V000","Fairprice","NTUC FAIRPRICE CO-OPERATIVE LTD","399 YUNG SHENG ROAD, #01-43A & 01-35 S(610399) #01-43A & 01-35","610399",1.33484487471259,103.720462024278
"C02046K000","Cold storage","COLD STORAGE SINGAPORE (1983) PTE LTD","1 BUKIT BATOK CENTRAL LINK #B1-01, WEST MALL S(658713)","658713",1.35037541626109,103.74912389291
"C02047J000","U stars supermarket","U STARS SUPERMARKET PTE. LTD.","345 CLEMENTI AVENUE 5 #01-78, S(120345)","120345",1.31770281154049,103.769076731999
"C02048E000","Cold storage","COLD STORAGE SINGAPORE (1983) PTE LTD","144 UPPER BUKIT TIMAH ROAD #B1-01, BEAUTY WORLD CENTRE S(588177)","588177",1.34241264188642,103.776539385406
"C02050X000","Sheng siong supermarket","SHENG SIONG SUPERMARKET PTE LTD","3 YUAN CHING ROAD #01-, #01-01A/02 S(618642) #01-01A/02","618642",1.32547408835086,103.725247683743
"C02052N000","Ridgewood gourmet","Yeo Keng Guan","5 RIDGEWOOD CLOSE, RIDGEWOOD CONDOMINIUM S(276696)","276696",1.3166189803866,103.77894725541
"C02053L000","Fairprice","NTUC FAIRPRICE CO-OPERATIVE LTD","166 BUKIT BATOK WEST AVENUE 8, #01-256/258 S(650166) #01-256/258","650166",1.34715255032968,103.742824825591
"C02080E000","Sheng siong supermarket","SHENG SIONG SUPERMARKET PTE LTD","61 TEBAN GARDENS ROAD #01-21, S(600061)","600061",1.3223749703177,103.738412755847
"C02104B000","Fairprice","NTUC FAIRPRICE CO-OPERATIVE LTD","10 BUKIT BATOK CENTRAL #01-08, S(659958)","659958",1.3487108105756,103.749334517338
"C03010C000","Cold storage","COLD STORAGE SINGAPORE (1983) PTE LTD","1 MARITIME SQUARE, HARBOURFRONT CENTRE S(099253) #01-47/48/49/50","099253",1.26401293230767,103.82005101011
"C79031J000","Giant","COLD STORAGE SINGAPORE (1983) PTE LTD","21 GHIM MOH ROAD #01-177, S(270021)","270021",1.31010302594118,103.788545950724
"C85274C000","Fairprice","NTUC FAIRPRICE CO-OPERATIVE LTD","345 JURONG EAST STREET 31 #01-29, S(600345)","600345",1.34551210586752,103.73121914575
"C99107C000","The seafood market place by song fish","SONG FISH DEALER PTE LTD","1 JURONG WEST CENTRAL 2 #B1-26, JURONG POINT SHOPPING CENTRE S(648886)","648886",1.33945200436319,103.706685012654
"CE04086K000","Fairprice","NTUC FAIRPRICE CO-OPERATIVE LTD","57 DAWSON ROAD #01-01, DAWSON PLACE S(142057)","142057",1.29270339855062,103.810958956467
"CE04334P000","Sheng siong supermarket","SHENG SIONG SUPERMARKET PTE LTD","233 ANG MO KIO AVENUE 3 #01-1168, S(560233)","560233",1.36754924977907,103.836740628478
"CE04558K000","Sheng siong supermarket","SHENG SIONG SUPERMARKET PTE LTD","108 MCNAIR ROAD #01-295, S(321108)","321108",1.3216190383169,103.859382719506
"CE05039P000","Cold storage","COLD STORAGE SINGAPORE (1983) PTE LTD","201 YISHUN AVENUE 2 #01-03, KHATIB MRT STATION S(769092)","769092",1.41758906054002,103.833061043125
"CE05096V000","Giant","COLD STORAGE SINGAPORE (1983) PTE LTD","316B ANG MO KIO STREET 31 #01-11, MULTI STOREY CAR PARK S(563316)","563316",1.36462540270464,103.847677034369
"CE05295K000","Fairprice","NTUC FAIRPRICE CO-OPERATIVE LTD","71 KALLANG BAHRU #02-531, S(330071)","330071",1.3209929422065,103.870389998344
"CE05380X000","Little farms","LITTLE FARMS PTE. LTD.","491 RIVER VALLEY ROAD #01-20,#01-20K,#01-24,#01-25, S(248371)","248371",1.2930991715203,103.827046215651
"CE05487V000","Fairprice","NTUC FAIRPRICE CO-OPERATIVE LTD","1 JALAN BUKIT MERAH #01-4500, S(150001)","150001",1.28647148628638,103.808275089948
"CE06044N000","Fairprice","NTUC FAIRPRICE CO-OPERATIVE LTD","491 RIVER VALLEY ROAD #01-14, VALLEY POINT S(248371)","248371",1.2930991715203,103.827046215651
"CE06464C000","Cold storage","COLD STORAGE SINGAPORE (1983) PTE LTD","501 BUKIT TIMAH ROAD #01-02, CLUNY COURT S(259760)","259760",1.32257316934913,103.814245542255
"CE06L48L000","Fairprice","NTUC FAIRPRICE CO-OPERATIVE LTD","10 SINARAN DRIVE #04-47/48, SQUARE 2 S(307506)","307506",1.32044103104797,103.844192628979
"CE06M36N000","Fairprice xtra","NTUC FAIRPRICE CO-OPERATIVE LTD","53 ANG MO KIO AVENUE 3 #B2-40, S(569933)","569933",1.36923561405404,103.848693181185
"CE07320C000","Fairprice","NTUC FAIRPRICE CO-OPERATIVE LTD","43 CAMBRIDGE ROAD #01-15, S(210043)","210043",1.31536302699791,103.849434501824
"CE07705A000","Fpxpress","CHEERS HOLDINGS (2004) PTE. LTD.","30 GREENWOOD AVENUE, HILLCREST PARK S(289230)","289230",1.33176092057825,103.806586709072
"CE07783P000","Sheng siong supermarket","SHENG SIONG SUPERMARKET PTE LTD","88 TANGLIN HALT ROAD #01-10, MULTI STOREY CAR PARK S(141088)","141088",1.301864727407,103.798174301286
"CE07D83B000","Fairprice","NTUC FAIRPRICE CO-OPERATIVE LTD","5 UPPER BOON KENG ROAD #01-05, MULTI STOREY CAR PARK S(380005)","380005",1.31261985181285,103.87252513932
"CE08015J000","Fairprice","NTUC FAIRPRICE CO-OPERATIVE LTD","18/20 KIM TIAN ROAD, KAI FOOK MANSION S(169252)","169252",1.28481163867942,103.829306826998
"CE08808B000","Swiss butchery","SWISS BUTCHERY PTE LTD","56 TANGLIN ROAD #01-02, S(247964)","247964",1.30561166483047,103.82296294094
"CE08H32N000","Fairprice","NTUC FAIRPRICE CO-OPERATIVE LTD","80 LORONG LIMAU #01-191, S(320080)","320080",1.32379607125113,103.855670620709
"CE09512V000","Giant","COLD STORAGE SINGAPORE (1983) PTE LTD","512 BISHAN STREET 13 #01-524, S(570512)","570512",1.34962234975345,103.849881702733
"CE09685B000","Cold storage","COLD STORAGE SINGAPORE (1983) PTE LTD","20 GREENWOOD AVENUE, HILLCREST PARK S(289215)","289215",1.33149129253859,103.806809027748
"CE09874X000","Mini mart","AL MARCHE PTE. LTD.","2 MARINA BOULEVARD #B1-05, SAIL @ MARINA BAY, THE S(018987)","018987",1.28076943476846,103.852658562152
"CE09H10X000","Fairprice","NTUC FAIRPRICE CO-OPERATIVE LTD","180 KITCHENER ROAD #B1-09/10, CITY SQUARE MALL S(208539)","208539",1.31135169933195,103.856724057693
"CE10085L000","Prb trading","PRB TRADING PTE. LTD.","230 GEYLANG ROAD, #B1-01 & #01-01 S(389290)","389290",1.31208817725995,103.877388748956
"CE10637N000","Family needs","FAMILY NEEDS PTE. LTD.","64 RANGOON ROAD, R66 APARTMENTS S(218354)","218354",1.31391051715464,103.854392537736
"CE10B87J000","Cold storage","COLD STORAGE SINGAPORE (1983) PTE LTD","383 BUKIT TIMAH ROAD #01-09A, ALOCASSIA APARTMENTS S(259727)","259727",1.31943645952176,103.827347301883
"CE10I13B000","Foodie market place","FOODIE MARKET PLACE PTE. LTD.","225 OUTRAM ROAD, S(169038)","169038",1.2834507756763,103.835371238027
"CE11B47P000","Hao mart","HAO MART PTE. LTD.","32 LORONG 11 GEYLANG, S(388724)","388724",1.31346903148114,103.877004748853
"CE11C49E000","Giant","COLD STORAGE SINGAPORE (1983) PTE LTD","26 JALAN MEMBINA #01-07, S(161026)","161026",1.28263437649669,103.825595753657
"CE11F41C000","Fairprice shop","NTUC FAIRPRICE CO-OPERATIVE LTD","150 SILAT AVENUE #01-44, S(160150)","160150",1.27707706824333,103.831425856916
"CE11H82X000","Kosher shop","Jewish Welfare Board, Singapore, The","24 WATERLOO STREET #02-01, JEWISH SYNAGOGUE S(187950)","187950",1.29824645365032,103.850683146693
"CE11M39P000","Fairprice","NTUC FAIRPRICE CO-OPERATIVE LTD","6 SCOTTS ROAD, SCOTTS SQUARE S(228209) #B1-03/07 & #B1-10","228209",1.30585582603508,103.832984356543
"CE11N90C000","Fairprice","NTUC FAIRPRICE CO-OPERATIVE LTD","712 ANG MO KIO AVENUE 6 #01-4056, S(560712)","560712",1.3714109677026,103.847084468485
"CE11P32L000","Cold storage","COLD STORAGE SINGAPORE (1983) PTE LTD","1 SELETAR ROAD #01-11, GREENWICH, THE S(807011)","807011",1.38736769500018,103.869348049282
"CE12096L000","Sheng siong supermarket","SHENG SIONG SUPERMARKET PTE LTD","1 JALAN BERSEH #B1-03/22, NEW WORLD CENTRE S(209037)","209037",1.30778509510261,103.857010982845
"CE12546B000","Sheng siong supermarket","SHENG SIONG SUPERMARKET PTE LTD","301 GEYLANG ROAD, BCH@301 S(389344) #01-02, #02-01/02/03/04/05","389344",1.31272117351252,103.878642017231
"CE12695A000","Hao mart","HAO MART PTE. LTD.","74 WHAMPOA DRIVE #01-332,#01-336,#01-334, S(320074)","320074",1.32471579654689,103.857752875203
"CE12H50C000","Fairprice finest","NTUC FAIRPRICE CO-OPERATIVE LTD","100 TRAS STREET #B1-01, 100 AM S(079027)","079027",1.27468281482263,103.843488359469
"CE12H94B000","Prime supermarket","PRIME SUPERMARKET (1996) PTE LTD","542B SERANGOON NORTH AVENUE 3 #02-01, MUTLI STOREY CAR PARK S(552542)","552542",1.37368393003779,103.871416978631
"CE12J32X000","Sheng siong supermarket","SHENG SIONG SUPERMARKET PTE LTD","2 ANG MO KIO DRIVE #01-12, ITE COLLEGE CENTRAL S(567720)","567720",1.37789204897273,103.856411982029
"CE12V01C000","Hao mart","HAO MART PTE. LTD.","16 JALAN KURAS, SEMBAWANG HILLS ESTATE S(577729)","577729",1.37307949430462,103.829630839555
"CE13539N000","Supernature","CULINA PTE. LTD.","583 ORCHARD ROAD, FORUM S(238884) #B1-05/06/07/08/09","238884",1.30619579912712,103.828509016327
"CE13O90C000","Fairprice finest","NTUC FAIRPRICE CO-OPERATIVE LTD","20 AH HOOD ROAD #02-01, S(329984)","329984",1.32702991607724,103.846490871841
"CE13R25C000","Fairprice","NTUC FAIRPRICE CO-OPERATIVE LTD","447A JALAN KAYU #01-02, S(791447)","791447",1.39213828470085,103.872490555974
"CE13S05E000","Labiba enterprise","HAMINI PTE. LTD.","249 JALAN KAYU, S(799473)","799473",1.39657691054767,103.872860366695
"CE13Z03L000","Giant hyperfresh","COLD STORAGE SINGAPORE (1983) PTE LTD","3 TEMASEK BOULEVARD #B1-154,#B1-155,#B1-156, SUNTEC CITY MALL S(038983)","038983",1.29571152468885,103.858552585838
"CE13Z98K000","Fairprice","NTUC FAIRPRICE CO-OPERATIVE LTD","808 FRENCH ROAD #01-01, KITCHENER COMPLEX S(200808)","200808",1.30878216502928,103.861378522287
"CE14938E000","Song fish- seafood market place","SONG FISH DEALER PTE LTD","133 NEW BRIDGE ROAD #B1-26, CHINATOWN POINT S(059413)","059413",1.28499882847401,103.844697081142
"CE14G73B000","Cold storage","COLD STORAGE SINGAPORE (1983) PTE LTD","12 KALLANG AVENUE #01-47, APERIA S(339511)","339511",1.30971120678144,103.864326436447
"CE14L50J000","Fairprice finest","NTUC FAIRPRICE CO-OPERATIVE LTD","33 SENGKANG WEST AVENUE #B2-24, THE SELETAR MALL S(797653)","797653",1.39131549124709,103.876213231014
"CE14Q85A000","B&s minimart","B & S MINI MART PTE. LTD.","310 GEYLANG ROAD, S(389349)","389349",1.31245131450842,103.879622127227
"CE15023A000","Gw minimart","GW TRADER PTE. LTD.","8 SELETAR NORTH LINK #G1-03, PPT LODGE 1A S(797455)","797455",1.41833138632619,103.896447883223
"CE15042P000","Phan99 supermart","PHAN99 INVESTMENTS PTE. LTD.","2 SELETAR NORTH LINK #01-38, PPT LODGE 1B S(797601)","797601",1.41703222456972,103.896085339374
"CE15577J000","Cold storage","COLD STORAGE SINGAPORE (1983) PTE LTD","442 ORCHARD ROAD #B1-01/11, ORCHARD HOTEL S(238879)","238879",1.30766860940267,103.828164396352
"CE15695V000","Fairprice","NTUC FAIRPRICE CO-OPERATIVE LTD","279 SENGKANG EAST AVENUE #01-06, MULTI STOREY CAR PARK S(540279)","540279",1.38621835522425,103.89299549602
"CE15B61K000","U stars supermarket","U STARS SUPERMARKET PTE. LTD.","330 ANCHORVALE STREET #01-01, S(540330)","540330",1.3968497990014,103.889246755784
"CE15F60K000","Huber's","HUBER'S PTE. LTD.","22 DEMPSEY ROAD, 1st & 2nd storey S(249679) 1st & 2nd storey","249679",1.30679240314535,103.810185814417
"CE15G35E000","Fairprice","NTUC FAIRPRICE CO-OPERATIVE LTD","20 LENGKOK BAHRU #01-13, S(159053)","159053",1.28686170538596,103.813904189286
"CE15J25N000","Sheng siong supermarket","SHENG SIONG SUPERMARKET PTE LTD","85 DAWSON ROAD #01-01, MULTI STOREY CAR PARK S(141085)","141085",1.29531966312622,103.809758591447
"CE16913J000","Sheng siong supermarket","SHENG SIONG SUPERMARKET PTE LTD","473 FERNVALE STREET #01-06, FERNVALE RIVERGROVE S(790473)","790473",1.39779874741053,103.881698806174
"CE16E64A000","Hao mart","HAO MART PTE. LTD.","106 HENDERSON CRESCENT #01-47, HENDERSONVILLE S(150106)","150106",1.28942607947152,103.822276781927
"CE16I13V000","Iroha mart","IROHA INTERNATIONAL PTE. LTD.","68 ORCHARD ROAD #B2-17,#B2-18, PLAZA SINGAPURA S(238839)","238839",1.30083413030923,103.845072743164
"CE16K18V000","Fairprice shop","NTUC FAIRPRICE CO-OPERATIVE LTD","574 ANG MO KIO AVENUE 10 #01-1847, S(560574)","560574",1.37089456931834,103.856396509138
"CE16M43E000","Little farms","LITTLE FARMS PTE. LTD.","7 WALLICH STREET #B2-06, TANJONG PAGAR CENTRE S(078884)","078884",1.27672492702287,103.845155395387
"CE17174A000","Taste singapore","TASTE (SINGAPORE) PRIVATE LIMITED","118 HOLLAND AVENUE #B1-01/10, RAFFLES HOLLAND V S(278997)","278997",1.31056351475336,103.796107173318
"CE17A77E000","Cavemen","CAVEMEN PTE. LTD.","1 JALAN DUSUN #01-11/12,#01-09/10, ONE DUSUN RESIDENCES S(329363)","329363",1.32696539864482,103.84367423097
"CE17E43B000","Hao mart","HAO MART PTE. LTD.","410A SIN MING AVENUE #01-02, MULTI STOREY CAR PARK S(571410)","571410",1.36321663626182,103.835456921925
"CE17F56J000","Iroha mart","IROHA INTERNATIONAL PTE. LTD.","133 NEW BRIDGE ROAD #B1-11, CHINATOWN POINT S(059413)","059413",1.28499882847401,103.844697081142
"CE17J36N000","Cold storage","COLD STORAGE SINGAPORE (1983) PTE LTD","5 STRAITS VIEW #B2-15/16, THE HEART S(018935)","018935",1.27737235072298,103.852844801266
"CE17K55B000","Fairprice shop","NTUC FAIRPRICE CO-OPERATIVE LTD","30 BENDEMEER ROAD #01-871, BENDEMEER VILLE S(330030)","330030",1.31909343822193,103.863905325578
"CE17L02A000","Fairprice shop","NTUC FAIRPRICE CO-OPERATIVE LTD","95 LORONG 4 TOA PAYOH #01-70,#01-72,#01-68, TOA PAYOH PALM SPRING S(310095)","310095",1.338974038346,103.849002148998
"CE17L45A000","Don don donki","PAN PACIFIC RETAIL MANAGEMENT (SINGAPORE) PTE. LTD.","181 ORCHARD ROAD #B2-01/03,#B2-23/48, ORCHARD CENTRAL S(238896)","238896",1.30083890839245,103.839434733899
"CE17M26A000","Hao mart","HAO MART PTE. LTD.","17 JALAN TENTERAM #01-128, S(321017)","321017",1.32821169071169,103.859812573047
"CE17M36X000","Hao mart","HAO MART PTE. LTD.","146 JALAN BUKIT MERAH #01-1074, S(160146)","160146",1.27784876576774,103.830811459909
"CE17P14L000","Sf farm mart","SF (313) PTE. LTD.","3 TEMASEK BOULEVARD #01-616,#01-617, SUNTEC CITY MALL S(038983)","038983",1.29571152468885,103.858552585838
"CE17Q32B000","Sheng siong supermarket","SHENG SIONG SUPERMARKET PTE LTD","417 FERNVALE LINK #01-11, MULTI STOREY CAR PARK S(790417)","790417",1.39158622983505,103.879874611419
"CE17Q33A000","Sheng siong supermarket","SHENG SIONG SUPERMARKET PTE LTD","338 ANCHORVALE CRESCENT #01-11, MULTI STOREY CAR PARK S(540338)","540338",1.39922772538912,103.88965593061
"CE18A78X000","Don don donki","PAN PACIFIC RETAIL MANAGEMENT (SINGAPORE) PTE. LTD.","100 TRAS STREET #02-22/26,#03-01/05,#02-01/05,#03-19/23, 100 AM S(079027)","079027",1.27468281482263,103.843488359469
"CE18G73N000","Hao mart","HAO MART PTE. LTD.","91 TELOK BLANGAH STREET 31 #01-02,#01-03,#01-04, S(100091)","100091",1.27627970533812,103.806955809842
"CE18I13C000","Little farms","LITTLE FARMS PTE. LTD.","3 LORONG LIPUT #01-04,#01-05,#01-06, HOLLAND VILLAGE CORNER S(277725)","277725",1.31067976097165,103.795260908624
"CE18P85X000","Fairprice finest","NTUC FAIRPRICE CO-OPERATIVE LTD","111 SOMERSET ROAD #01-01/02,#01-21/30, TRIPLEONE SOMERSET S(238164)","238164",1.30020625685959,103.837317132796
"CE18R47X000","Prime supermarket","PRIME SUPERMARKET (1996) PTE LTD","991 BUANGKOK LINK #01-28, MULTI STOREY CAR PARK S(530991)","530991",1.38433426615655,103.881623070164
"CE18R71X000","Your grocer","YOUR GROCER PRIVATE LIMITED","34 JALAN BUKIT HO SWEE #01-870, THE BEO CRESCENT S(160034)","160034",1.28807687600985,103.82708127923
"CE18T11J000","Jo by cold storage","COLD STORAGE SINGAPORE (1983) PTE LTD","8A MARINA BOULEVARD #B2-44-50, MARINA BAY LINK MALL S(018984)","018984",1.27992126239604,103.854773147641
"CE18T88K000","Don don donki","PAN PACIFIC RETAIL MANAGEMENT (SINGAPORE) PTE. LTD.","180 KITCHENER ROAD #B2-07,#B2-17,#B2-18,#B2-06, CITY SQUARE MALL S(208539)","208539",1.31135169933195,103.856724057693
"CE18W55K000","Hao mart","HAO MART PTE. LTD.","803 KING GEORGE'S AVENUE #01-168, S(200803)","200803",1.30811749102335,103.861188606169
"CE19351J000","Jasons deli by cold storage","COLD STORAGE SINGAPORE (1983) PTE LTD","2 BAYFRONT AVENUE #01-29, MARINA BAY SANDS S(018972)","018972",1.28332249857386,103.857629111139
"CE19392L000","Culina","CULINA PTE. LTD.","15 DEMPSEY ROAD, S(249675)","249675",1.30518823313112,103.810314282281
"CE19799X000","Suzyameer frozen","SUZYAMEER FROZEN PTE. LTD.","991 BUANGKOK LINK #01-24/25, MULTI STOREY CAR PARK S(530991)","530991",1.38433426615655,103.881623070164
"CE19878A000","Don don donki","PAN PACIFIC RETAIL MANAGEMENT (SINGAPORE) PTE. LTD.","10 SINARAN DRIVE #B1-01/85, SQUARE 2 S(307506)","307506",1.32044103104797,103.844192628979
"CE19910L000","Fairprice finest","NTUC FAIRPRICE CO-OPERATIVE LTD","107 NORTH BRIDGE ROAD #B1-10, S(179105)","179105",1.29134759697794,103.849989790085
"CE19987N000","Fairprice","NTUC FAIRPRICE CO-OPERATIVE LTD","51 UPPER SERANGOON ROAD #01-30-32,#01-41-49, THE POIZ CENTRE S(347697)","347697",1.33135550782584,103.868150095119
"CE19A43K000","Sheng siong supermarket","SHENG SIONG SUPERMARKET PTE LTD","351 ANCHORVALE ROAD #01-05, MULTI STOREY CAR PARK S(540351)","540351",1.39332786581517,103.886617625113
"CE19H85N000","Don don donki","PAN PACIFIC RETAIL MANAGEMENT (SINGAPORE) PTE. LTD.","6 EU TONG SEN STREET #B1-11-24,#B1-27B,#B1-28A,#B1-27A,#B1-27C,#B1-27E,#B1-28,#B1-27,#B1-27D,#B1-28B,#B1-44-51, THE CENTRAL S(059817)","059817",1.2888737988701,103.846797382693
"CE19I23N000","Meidi-ya supermarket","MEIDI-YA SINGAPORE CO (PTE) LTD","1 KIM SENG PROMENADE #B2-116,#B2-112,#B2-113,#B2-121,#B2-117,#B2-114,#B2-118,#B2-111,#B2-115,#B2-119,#B2-120, GREAT WORLD CITY S(237994)","237994",1.2934759620704,103.831975865363
"CE19K92V000","Hao mart","HAO MART PTE. LTD.","116 JALAN TENTERAM #01-02, MULTI STOREY CAR PARK S(320116)","320116",1.32769993704525,103.861236369481
"E02026P000","Cold storage","COLD STORAGE SINGAPORE (1983) PTE LTD","20 EASTWOOD ROAD #01-07/09, EASTWOOD CENTRE S(486442)","486442",1.32154249881548,103.955535617961
"E02027N000","Cold storage","COLD STORAGE SINGAPORE (1983) PTE LTD","80 MARINE PARADE ROAD #B1-84, PARKWAY PARADE SHOPPING CENTRE S(449269)","449269",1.30106068019409,103.905339493587
"E02028L000","Giant","COLD STORAGE SINGAPORE (1983) PTE LTD","266 SERANGOON CENTRAL DRIVE #01-255, S(550266)","550266",1.35323198383248,103.871472595608
"E02030B000","Giant","COLD STORAGE SINGAPORE (1983) PTE LTD","306 UBI AVENUE 1 #01-185, S(400306)","400306",1.32987117232209,103.901930369733
"E02032V000","Sheng siong supermarket","SHENG SIONG SUPERMARKET PTE LTD","539A BEDOK NORTH STREET 3 #01-477, BEDOK NORTH AREA OFFICE S(461539)","461539",1.33240230571086,103.925500595677
"E02033X000","Giant","COLD STORAGE SINGAPORE (1983) PTE LTD","509 BEDOK NORTH STREET 3 #01-121, S(460509)","460509",1.33317541870197,103.931265025162
"E02034P000","Fairprice","NTUC FAIRPRICE CO-OPERATIVE LTD","114 ALJUNIED AVENUE 2 #01-75, S(380114)","380114",1.32172296225797,103.886811795181
"E02035N000","Fairprice","NTUC FAIRPRICE CO-OPERATIVE LTD","212 BEDOK NORTH STREET 1 #01-147, S(460212)","460212",1.32594069200441,103.931640022396
"E02039E000","Fairprice","NTUC FAIRPRICE CO-OPERATIVE LTD","152B SERANGOON NORTH AVENUE 1 #01-384, S(552152)","552152",1.36979940374161,103.87303579046
"E02041X000","Prime supermarket","PRIME SUPERMARKET LIMITED","25A CHAI CHEE ROAD #01-459, S(461025)","461025",1.32328959946584,103.924149636877
"E02045K000","Sheng siong supermarket","SHENG SIONG SUPERMARKET PTE LTD","118 ALJUNIED AVENUE 2 #01-100, S(380118)","380118",1.32000040187831,103.887363064677
"E02047E000","Giant","COLD STORAGE SINGAPORE (1983) PTE LTD","348 BEDOK ROAD #01-01, BEDOK SHOPPING COMPLEX S(469560)","469560",1.33143623119911,103.948260304303
"E02072C000","Fairprice","TEO BOBBY","29 CHAI CHEE AVENUE #01-62, S(460029)","460029",1.32476040143251,103.924370232312
"E02096K000","Fairprice","NTUC FAIRPRICE CO-OPERATIVE LTD","6 MARINE PARADE CENTRAL, NTUC FAIRPRICE SUPERMARKET S(449411)","449411",1.30134707556712,103.907183628134
"E02140N000","Sheng siong supermarket","SHENG SIONG SUPERMARKET PTE LTD","1 JALAN BERSEH #B1-02, NEW WORLD CENTRE S(209037)","209037",1.30778509510261,103.857010982845
"E03034J000","Sheng siong supermarket","SHENG SIONG SUPERMARKET PTE LTD","115 BEDOK NORTH ROAD #01-319, S(460115)","460115",1.33143368026417,103.936865404278
"E73010V000","Sheng siong supermarket","SHENG SIONG SUPERMARKET PTE LTD","11 UPPER BOON KENG ROAD #01-901, S(380011)","380011",1.31423937033551,103.870914031459
"E75097C000","Prime supermarket","PRIME SUPERMARKET (1996) PTE LTD","18 BEDOK SOUTH ROAD #01-87, S(460018)","460018",1.32062504871279,103.934734222428
"E79179V000","U stars supermarket","U STARS PTE. LTD.","510 BEDOK NORTH STREET 3 #01-33, S(460510)","460510",1.33212313291916,103.93105149637
"E82118V000","Hao mart","HAO MART PTE. LTD.","537 BEDOK NORTH STREET 3 #01-555, S(460537)","460537",1.33177300757048,103.924236461237
"E83157K000","Fairprice","NTUC FAIRPRICE CO-OPERATIVE LTD","934 EAST COAST ROAD, S(459125)","459125",1.31230757275549,103.925234546756
"E85090E000","Hao mart","HAO MART PTE. LTD.","120 POTONG PASIR AVENUE 1 #01-812, S(350120)","350120",1.33545353246777,103.863387980398
"E89116J000","Wahoo","WAHOO SEAFOODS PTE. LTD.","57 JALAN TUA KONG, S(457253)","457253",1.31595937666575,103.925443851261
"E95315V000","Fairprice","NTUC FAIRPRICE CO-OPERATIVE LTD","77 CIRCUIT ROAD #01-464/6, S(370077)","370077",1.32855656206109,103.885349899665
"E98161V000","Fairprice","NTUC FAIRPRICE CO-OPERATIVE LTD","255 EAST COAST ROAD, S(428932)","428932",1.30836164661181,103.907988808727
"J02009N000","Sheng siong supermarket","SHENG SIONG SUPERMARKET PTE LTD","544 JURONG WEST STREET 42 #01-97/99, S(640544)","640544",1.35239358298744,103.71575950591
"J02010E000","Giant","COLD STORAGE SINGAPORE (1983) PTE LTD","475 CHOA CHU KANG AVENUE 3 #01-01, S(680475)","680475",1.37789727709418,103.739015486021
"J02011C000","Cold storage","COLD STORAGE SINGAPORE (1983) PTE LTD","464 UPPER BUKIT TIMAH ROAD, S(678077)","678077",1.36012368217462,103.767542220363
"J02013A000","Fairprice","NTUC FAIRPRICE CO-OPERATIVE LTD","221 BOON LAY PLACE #02-200, BOON LAY SHOPPING CENTRE S(640221)","640221",1.34637376407877,103.712472819666
"J02016P000","Seng eng","NG TOH TET","442 JURONG WEST AVENUE 1 #01-756, S(640442)","640442",1.35151847519437,103.719496480131
"J02017N000","Prime supermarket","PRIME SUPERMARKET (1996) PTE LTD","373 BUKIT BATOK STREET 31 #01-248, PRIME BUILDING S(650373)","650373",1.35892457118178,103.750397174291
"J02018L000","Prime supermarket","PRIME SUPERMARKET (1996) PTE LTD","253 CHOA CHU KANG AVENUE 1 #B1-07/10, S(680253)","680253",1.37677749544409,103.744548948082
"J02019K000","Prime supermarket","PRIME SUPERMARKET LIMITED","962 JURONG WEST STREET 91 #01-300, S(640962)","640962",1.34180915377904,103.691512648994
"J02020B000","Prime supermarket","PRIME SUPERMARKET (1996) PTE LTD","142 TECK WHYE LANE #01-281, S(680142)","680142",1.38079049641025,103.75195441174
"J02021A000","Cold storage","COLD STORAGE SINGAPORE (1983) PTE LTD","376 BUKIT BATOK STREET 31 #01-116, S(650376)","650376",1.35831705249927,103.749579868748
"J03027B000","Jurong island minimart","KADER HASNA MARICAN","17 KIAN TECK LANE #01-65, S(627851)","627851",1.33314578370484,103.695248109449
"J03056N000","Cold storage","COLD STORAGE SINGAPORE (1983) PTE LTD","492 JURONG WEST STREET 41, #01-24/26/28 S(640492) #01-24/26/28","640492",1.34994543559348,103.725180466645
"J87134E000","G & g wholesale & marketing","BALASUBRAMANIYAN KANNADASAN","257 KRANJI ROAD, 1ST STOREY S(739503) 1ST STOREY","739503",1.43594536031501,103.754008428765
"J92067N000","Mcp fairmart","MCP FAIRMART PTE. LTD.","371 BUKIT BATOK STREET 31 #01-324, S(650371)","650371",1.35925940866068,103.75069463109
"J94081B000","Prime supermarket","PRIME SUPERMARKET LIMITED","763 JURONG WEST STREET 75 #01-01, S(640763)","640763",1.34874400271888,103.698298780189
"J96145K000","Fairprice","NTUC FAIRPRICE CO-OPERATIVE LTD","21 CHOA CHU KANG AVENUE 4 #B1-03, LOT 1 SHOPPERS' MALL S(689812)","689812",1.38493874036122,103.745022476677
"NE04047K000","Fairprice","NTUC FAIRPRICE CO-OPERATIVE LTD","138 TAMPINES STREET 11 #01-136, S(521138)","521138",1.3455045062724,103.945588355383
"NE04092A000","U stars supermarket","U STARS PTE. LTD.","625 ELIAS ROAD #01-302, ELIAS MALL S(510625)","510625",1.37860239032585,103.941978177673
"NE04107V000","Fairprice","NTUC FAIRPRICE CO-OPERATIVE LTD","168 PUNGGOL FIELD #03-01, PUNGGOL PLAZA S(820168)","820168",1.39417447299355,103.913120037036
"NE04109P000","Az supermart","AZ SUPERMART PTE. LTD.","21 KAKI BUKIT AVENUE 3, GOLDEN BUKIT DORMITORY 2 S(415920) GOLDEN BUKIT DORMITORY 2","415920",1.33809445622754,103.909956515968
"NE04114A000","Fairprice","NTUC FAIRPRICE CO-OPERATIVE LTD","866A TAMPINES STREET 83 #01-01, TAMPINES CENTRAL COMMUNITY COMPLEX S(521866)","521866",1.35539306251992,103.934429348334
"NE04155C000","Yes supermarket","YES SUPERMARKET PTE LTD","829 TAMPINES ST 81, S(520829)","520829",1.34922419580696,103.934912515373
"NE06429X000","Cold storage","COLD STORAGE SINGAPORE (1983) PTE LTD","266 COMPASSVALE BOW #01-02, THE CORIS S(540266) MULTI STOREY CAR PARK","540266",1.38187771301641,103.897039857818
"NE07474A000","Cold storage","COLD STORAGE SINGAPORE (1983) PTE LTD","21 TAMPINES NORTH DRIVE 2, GIANT S(528765) GIANT HYPERMARKETS","528765",1.37210169874539,103.931999887543
"NE08058P000","Fairprice","NTUC FAIRPRICE CO-OPERATIVE LTD","1 PASIR RIS CLOSE #02-127, E!HUB@DOWNTOWN EAST S(519599) PASIR RIS NTUC RESORT","519599",1.3766980678365,103.95514122442
"NE08150C000","Fairprice","NTUC FAIRPRICE CO-OPERATIVE LTD","277C COMPASSVALE LINK #01-13, ASPELLA S(543277) UNIT 01","543277",1.382379846623,103.893800423718
"NE08357A000","Suzyameer frozen","SUZYAMEER FROZEN PTE. LTD.","201D TAMPINES STREET 21 #01-1161, S(524201)","524201",1.35226231425316,103.953586491358
"NE09027A000","Cold storage","COLD STORAGE SINGAPORE (1983) PTE LTD","10 TAMPINES CENTRAL 1 #B1-01/02, S(529536)","529536",1.35432321225804,103.945141172369
"NE09263B000","Fairprice","NTUC FAIRPRICE CO-OPERATIVE LTD","100 HOUGANG AVENUE 10 #02-01, S(538767)","538767",1.37177996112812,103.894165380603
"NE09314N000","Giant","COLD STORAGE SINGAPORE (1983) PTE LTD","776 PASIR RIS STREET 71 #01-412, S(510776)","510776",1.37461117497015,103.937175821555
"NE09359K000","Sheng siong supermarket","SHENG SIONG SUPERMARKET PTE LTD","301 PUNGGOL CENTRAL #01-01, CORALINUS S(820301) MULTI STOREY CAR PARK","820301",1.40371939757402,103.906138006707
"NE10113B000","Ang mo supermarket","ANG MO SUPERMARKET PTE LTD","639 PUNGGOL DRIVE #01-01, S(820639)","820639",1.39946117845803,103.916054498662
"NE10213X000","Begonia supermarket","SHAHUL HAMEED S/O ABDUSALAM","280 TAMPINES STREET 22 #01-244, S(520280)","520280",1.34753519689194,103.951702776881
"NE10310X000","Fairprice finest","NTUC FAIRPRICE CO-OPERATIVE LTD","1 MAJU AVENUE #B1-11-14,#B1-18-20, MYVILLAGE AT SERANGOON GARDEN S(556679)","556679",1.3652806057289,103.865101220515
"NE11529V000","Prime supermarket","PRIME SUPERMARKET (1996) PTE LTD","159A HOUGANG STREET 11 #01-01, MULTI STOREY CAR PARK S(531159)","531159",1.35189336565608,103.879444507283
"NE11808L000","Beng poh mini mart","BENG POH MINI MART","21B TAMPINES AVENUE, S(529804)","529804",1.36644646508851,103.92606538369
"NE11909C000","Cold storage","COLD STORAGE SINGAPORE (1983) PTE LTD","683 HOUGANG AVENUE 8 #01-903, S(530683)","530683",1.37331270061833,103.886367847223
"NE12B79A000","Fairprice","NTUC FAIRPRICE CO-OPERATIVE LTD","612 PUNGGOL DRIVE #01-06, S(820612)","820612",1.40461003085618,103.908665597491
"NE12I65N000","Li li cheng supermarket (punggol) pte. ltd.","LI LI CHENG SUPERMARKET (PUNGGOL) PTE. LTD.","273C PUNGGOL PLACE #01-884, PUNGGOL REGALIA S(823273)","823273",1.40230301367166,103.901262391698
"NE13M11K000","Cold storage","COLD STORAGE SINGAPORE (1983) PTE LTD","622D PUNGGOL CENTRAL #01-06, PUNGGOL SPECTRA S(824622)","824622",1.40053114998822,103.910536919134
"NE14190K000","Viva mart enterprises","VIVA CORP SERVICES PTE. LTD.","23 KAKI BUKIT ROAD 3 #01-02, THE LEO S(415812)","415812",1.33733862669183,103.903735075266
"NE15002X000","Sheng siong supermarket","SHENG SIONG SUPERMARKET PTE LTD","506 TAMPINES CENTRAL 1 #01-361, S11 COURT S(520506)","520506",1.35595238706011,103.945937400867
"NE15006K000","Sferm","SFERM PTE. LTD.","78 SERANGOON GARDEN WAY #01-01, SERANGOON GARDEN ESTATE S(555974)","555974",1.36428136996969,103.86513393838
"NE15211C000","Sheng siong supermarket","SHENG SIONG SUPERMARKET PTE LTD","312A SUMANG LINK #01-04, PUNGGOL PARCVISTA S(821312)","821312",1.41081926900094,103.900371677782
"NE15276N000","Sheng siong supermarket","SHENG SIONG SUPERMARKET PTE LTD","527D PASIR RIS STREET 51 #01-01, COSTA RIS S(514527)","514527",1.36968625501963,103.947922425135
"NE15440C000","U stars supermarket","U STARS SUPERMARKET PTE. LTD.","261 PUNGGOL WAY #01-02, PUNGGOL TOPAZ S(820261) MULTI STOREY CAR PARK","820261",1.40541353588128,103.896823897352
"NE15467C000","Fairprice","NTUC FAIRPRICE CO-OPERATIVE LTD","476 UPPER SERANGOON VIEW #02-18, PUNGGOL TOPAZ S(530476) MULTI STOREY CAR PARK","530476",1.37743337773735,103.903713550367
"NE15476B000","Hao mart","HAO MART PTE. LTD.","308C PUNGGOL WALK #01-352, WATERWAY TERRACES I S(823308)","823308",1.40800694944027,103.899074357998
"NE15611B000","Giant","COLD STORAGE SINGAPORE (1983) PTE LTD","671 EDGEFIELD PLAINS #02-01, S(820671)","820671",1.40566048045603,103.911991277154
"NE15760A000","Raw market","RAW MARKET PTE. LTD.","11 PASIR RIS LINK #01-48, SEASTRAND S(518180)","518180",1.37558830923856,103.960839727163
"NE15762X000","Fairprice finest","NTUC FAIRPRICE CO-OPERATIVE LTD","83 PUNGGOL CENTRAL #B2-32, WATERWAY POINT S(828761)","828761",1.4064128346795,103.902188891645
"NE16139A000","Giant","COLD STORAGE SINGAPORE (1983) PTE LTD","259 PASIR RIS STREET 21 #01-27, S(510259)","510259",1.36645364010349,103.964598499523
"NE16640E000","Fairprice","NTUC FAIRPRICE CO-OPERATIVE LTD","51 TAMPINES AVENUE 4 #B1-01, OUR TAMPINES HUB S(529684)","529684",NA,NA
"NE16747J000","U stars supermarket","U STARS SUPERMARKET PTE. LTD.","218 SUMANG WALK #01-01, S(820218)","820218",1.40322712524584,103.89538702242
"NE16875P000","Hao mart","HAO MART PTE. LTD.","487B TAMPINES STREET 45 #B1-123, S(521487)","521487",1.36026524882674,103.958372350188
"NE17023N000","Sheng siong supermarket","SHENG SIONG SUPERMARKET PTE LTD","258 PASIR RIS STREET 21 #02-10, LOYANG POINT S(510258)","510258",1.36706634197242,103.964635610477
"NE17098V000","U stars supermarket","U STARS SUPERMARKET PTE. LTD.","215C COMPASSVALE DRIVE #01-01, S(543215)","543215",1.38977026274295,103.892787161183
"NE17390X000","U stars supermarket","U STARS SUPERMARKET PTE. LTD.","878C TAMPINES AVENUE 8 #01-65, S(523878)","523878",1.35126411286423,103.929363834798
"NE17563L000","Sheng siong supermarket","SHENG SIONG SUPERMARKET PTE LTD","872C TAMPINES STREET 86 #02-01, S(523872)","523872",1.3552264706361,103.931626253992
"NE17700J000","Sheng siong supermarket","SHENG SIONG SUPERMARKET PTE LTD","660A EDGEDALE PLAINS #01-01, WATERWAY SUNDEW S(821660)","821660",1.40262197348865,103.916519598298
"NE18169P000","Fairprice","NTUC FAIRPRICE CO-OPERATIVE LTD","681 PUNGGOL DRIVE #B1-01, S(820681)","820681",1.40278015725693,103.913215101343
"NE18339P000","The seafood market place by song fish","SONG FISH DEALER PTE LTD","2 TAMPINES CENTRAL 5 #B1-08, CENTURY SQUARE S(529509)","529509",1.35227804040128,103.943727694121
"NE18406E000","J-mart japanese food market","TANESEI RETAILING PTE. LTD.","2 TAMPINES CENTRAL 5 #B1-06, CENTURY SQUARE S(529509)","529509",1.35227804040128,103.943727694121
"NE18529J000","The seafood market place by song fish","SONG FISH DEALER PTE LTD","681 PUNGGOL DRIVE #01-09,#01-11,#01-10, S(820681)","820681",1.40278015725693,103.913215101343
"NE18667L000","Hao mart","HAO MART PTE. LTD.","658 PUNGGOL EAST #01-01, S(820658)","820658",1.39991156763461,103.919353979151
"NE19271N000","Sheng siong supermarket","SHENG SIONG SUPERMARKET PTE LTD","231 SUMANG LANE #01-02, S(820231)","820231",1.40205998268188,103.892211658905
"NW06546V000","Fairprice","NTUC FAIRPRICE CO-OPERATIVE LTD","511 CANBERRA ROAD #02-03, SEMBAWANG MART S(750511)","750511",1.45384518981322,103.819543344305
"NW07277P000","Fairprice","NTUC FAIRPRICE CO-OPERATIVE LTD","355 SEMBAWANG WAY #01-01, S(750355)","750355",1.44954485621129,103.81872759237
"NW07636K000","Giant","COLD STORAGE SINGAPORE (1983) PTE LTD","406A SEMBAWANG DRIVE #01-02, MULTI STOREY CAR PARK S(751406)","751406",1.45238757319957,103.817440100888
"NW07726J000","Mm sundry shop","MM SUNDRY SHOP PTE. LTD.","27 WOODLANDS SECTOR 1 #01-70, WOODLANDS DORMITORY S(738252)","738252",1.45464655649548,103.804476731799
"NW08020K000","Cold storage","COLD STORAGE SINGAPORE (1983) PTE LTD","70 WOODLANDS AVENUE 7 #01-05, ADMIRALTY MRT STATION S(738344)","738344",1.44056973074732,103.80104928343
"NW08141P000","Cold storage","COLD STORAGE SINGAPORE (1983) PTE LTD","41 SUNSET WAY #01-01A, CLEMENTI ARCADE S(597071)","597071",1.32355286918436,103.767515486547
"NW08314K000","Cold storage","COLD STORAGE SINGAPORE (1983) PTE LTD","930 YISHUN AVENUE 2 #B1-06/07, NORTHPOINT S(769098)","769098",1.42969848626288,103.835776491468
"NW08385B000","Cold storage","COLD STORAGE SINGAPORE (1983) PTE LTD","604 SEMBAWANG ROAD #B1-25, SEMBAWANG SHOPPING CENTRE S(758459)","758459",1.44185307934021,103.824970378482
"NW08477X000","Fairprice","NTUC FAIRPRICE CO-OPERATIVE LTD","36 HOLLAND DRIVE #01-03, S(270036)","270036",1.30917419843848,103.792692584392
"NW09331A000","Ajmal trade mart","AJMAL TRADE MART PTE. LTD.","23 MANDAI ESTATE #01-21, S(729937)","729937",1.40631205409106,103.760561705557
"NW09437C000","Cold storage","COLD STORAGE SINGAPORE (1983) PTE LTD","468B ADMIRALTY DRIVE #01-29, S(752468)","752468",1.45000861656514,103.814110899773
"NW10192C000","Phan nee trading","PHAN NEE TRADING LLP","49 ADMIRALTY ROAD WEST, COCHRANE LODGE II S(757444)","757444",1.4613885444488,103.818111265911
"NW11384E000","Cold storage","COLD STORAGE SINGAPORE (1983) PTE LTD","1 WOODLANDS SQUARE #B1-31/32, CAUSEWAY POINT S(738099)","738099",1.43590007901468,103.785795816344
"NW11702X000","Sheng siong supermarket","SHENG SIONG SUPERMARKET PTE LTD","200 WOODLANDS INDUSTRIAL PARK E7 #01-30, WOODLANDS RECREATION CENTRE S(757177) INTERIM RECREATION PARK","757177",1.45074973335289,103.796846514064
"NW11767E000","Sheng siong supermarket","SHENG SIONG SUPERMARKET PTE LTD","1 WOODLANDS ROAD #01-07, THE TENNERY S(677899)","677899",1.38018163022688,103.76041930548
"NW13005P000","Bhandari international","BHANDARI INTERNATIONAL PTE. LTD.","50 WOODLANDS INDUSTRIAL PARK E4 #01-02, WOODLANDS LODGE ONE S(757388)","757388",1.45025875777465,103.794823954933
"NW13J23J000","Bismillah minimart","BISMILLAH MINIMART PTE. LTD.","32 MANDAI ESTATE #01-02, S(729939)","729939",1.40754124403461,103.758128230666
"NW13K05E000","Fairprice","NTUC FAIRPRICE CO-OPERATIVE LTD","570B WOODLANDS AVENUE 1 #01-06, S(732570)","732570",1.43106395458307,103.790454078756
"NW14006E000","De esperto minimart","DE ESPERTO MINIMART PTE. LTD.","190 WOODLANDS INDUSTRIAL PARK E7, S(757178)","757178",1.45123407130034,103.797900318242
"NW14040B000","Fortune supermarket","FORTUNE SUPERMARKET PTE. LTD.","463 SEMBAWANG DRIVE #01-02, MULTI STOREY CAR PARK S(750463)","750463",1.45555388401849,103.81464932384
"NW14561E000","7seven","7SEVEN PTE. LTD.","51 NORTH COAST AVENUE #01-03, NORTH COAST LODGE S(756992)","756992",1.45605972919051,103.786436914993
"NW15186C000","Sheng siong supermarket","SHENG SIONG SUPERMARKET PTE LTD","547 SEGAR ROAD #01-06, MULTI STOREY CAR PARK S(670547)","670547",1.3882402168269,103.76957538706
"NW15220L000","Fortune supermarket","FORTUNE SUPERMARKET PTE. LTD.","780 WOODLANDS CRESCENT #01-01, MULTI STOREY CAR PARK S(730780)","730780",1.44834155029683,103.801057143543
"NW15264K000","Ryan's grocery","ALTERNATIVE SELECTION PTE. LTD.","29 BINJAI PARK, BINJAI PARK S(589831)","589831",1.33661378718238,103.786974822749
"NW15295X000","Cold storage","COLD STORAGE SINGAPORE (1983) PTE LTD","896 DUNEARN ROAD #02-01, SIME DARBY CENTRE S(589472)","589472",1.33669726404395,103.783723416319
"NW15489B000","Ajmal trading group","AJMAL  TRADING GROUP PTE. LTD.","2 WOODLANDS SECTOR 2 #01-05, WESTLITE WOODLANDS DORMITORY S(737723)","737723",1.46146455321872,103.809563052691
"NW15751L000","Asha minimart","ASHA MINIMART PTE. LTD.","11 MANDAI ESTATE #01-15,#01-16, ELDIX S(729908)","729908",1.40860253518183,103.759758955688
"NW16388B000","Sheng siong supermarket","SHENG SIONG SUPERMARKET PTE LTD","18 YISHUN AVENUE 9 #02-06/10, JUNCTION NINE S(768897)","768897",1.43306021695327,103.841649364872
"NW16634L000","Hao mart","HAO MART PTE. LTD.","205 PETIR ROAD #01-595, S(670205)","670205",1.37343025396585,103.773924079454
"NW16763X000","Hao mart","HAO MART PTE. LTD.","505 CANBERRA LINK #01-01, MONTREAL SPRING S(750505)","750505",1.45026201889682,103.822534715231
"NW17097K000","Fairprice","NTUC FAIRPRICE CO-OPERATIVE LTD","17 PETIR ROAD #B2-67, HILLION MALL S(678278)","678278",1.37841165144214,103.76382945872
"NW17212X000","U stars supermarket","U STARS PTE. LTD.","507 YISHUN AVENUE 4 #01-09, S(760507)","760507",1.41517413065244,103.839827784744
"NW17277E000","Maa supermarket","MAA TRADING PTE. LTD.","280 WOODLANDS INDUSTRIAL PARK E5 #01-47, HARVEST @ WOODLANDS S(757322)","757322",1.45132505713202,103.79109517658
"NW17310P000","The seafood market place by song fish","SONG FISH DEALER PTE LTD","930 YISHUN AVENUE 2 #B1-05, NORTHPOINT SHOPPING CENTRE S(769098)","769098",1.42969848626288,103.835776491468
"NW17421C000","Sheng siong supermarket","SHENG SIONG SUPERMARKET PTE LTD","446 FAJAR ROAD #01-01, S(670446)","670446",1.38400582466296,103.771029603101
"NW17699N000","Green ventures","CUTECH GREEN VENTURES PTE. LTD.","10 WOODLANDS INDUSTRIAL PARK E1, S(757733)","757733",1.45334363120531,103.795682398584
"NW17734V000","Sheng siong supermarket","SHENG SIONG SUPERMARKET PTE LTD","4 WOODLANDS STREET 12 #02-61, S(738623)","738623",1.43354318137534,103.77988189197
"NW17872B000","Fairprice","NTUC FAIRPRICE CO-OPERATIVE LTD","1 NORTHPOINT DRIVE #B2-103,#B2-106,#B2-104,#B2-107,#B2-105, NORTHPOINT CITY S(768019)","768019",1.42875460572994,103.836324536111
"NW17908L000","Fairprice","NTUC FAIRPRICE CO-OPERATIVE LTD","676 WOODLANDS DRIVE 71 #B1-02, S(730676)","730676",1.43986217628881,103.800726772886
"NW17990N000","U stars supermarket","U STARS PTE. LTD.","691 WOODLANDS DRIVE 73 #01-06, S(730691)","730691",1.44062992421831,103.806198056529
"NW18021V000","Sheng siong supermarket","SHENG SIONG SUPERMARKET PTE LTD","105 CANBERRA STREET #02-05, S(750105)","750105",1.44885564679911,103.832409172149
"NW18091N000","Fairprice","NTUC FAIRPRICE CO-OPERATIVE LTD","29A GHIM MOH LINK #01-01, S(271029)","271029",1.30849288050575,103.784598100953
"NW18192E000","Fairprice finest","NTUC FAIRPRICE CO-OPERATIVE LTD","598 YISHUN RING ROAD #01-01, WISTERIA MALL S(768698)","768698",1.41798969122298,103.841317292608
"NW18310J000","Tasty farm","SONG FISH DEALER PTE LTD","676 WOODLANDS DRIVE 71 #01-04, S(730676)","730676",1.43986217628881,103.800726772886
"NW18478E000","Sheng siong supermarket","SHENG SIONG SUPERMARKET PTE LTD","675 YISHUN AVENUE 4 #01-10, S(760675)","760675",1.42006293748965,103.843561434577
"NW18649C000","Sheng siong supermarket","SHENG SIONG SUPERMARKET PTE LTD","785E WOODLANDS RISE #01-01, S(735785)","735785",1.44679888115266,103.805489772817
"NW18778K000","Sheng siong supermarket","SHENG SIONG SUPERMARKET PTE LTD","573 WOODLANDS DRIVE 16 #02-01, S(730573)","730573",1.43109807246887,103.798507621177
"NW18B29C000","Ang mo supermarket","ANG MO SUPERMARKET PTE LTD","120 CANBERRA CRESCENT #01-10, MULTI STOREY CAR PARK S(750120)","750120",1.4456745290189,103.831508132401
"NW19066J000","Raj agro trading","RAJ AGRO TRADING PTE. LTD.","11 KRANJI CLOSE #01-17/18, S(737673)","737673",1.42813508856242,103.753311327334
"NW19111K000","Ajmal trading group","AJMAL  TRADING GROUP PTE. LTD.","11 KRANJI CLOSE #01-02/03, S(737673)","737673",1.42813508856242,103.753311327334
"NW19252J000","Prime food & grocer","PRIME SUPERMARKET (1996) PTE LTD","461 YISHUN AVENUE 6 #01-01,#01-02, MULTI STOREY CAR PARK S(760461)","760461",1.42841338853064,103.84997365333
"NW19637C000","Yeo express","YEO WHOLESALE AND TRADING PTE. LTD.","443C FAJAR ROAD #01-70, FAJAR HILLS S(673443)","673443",1.38057053056182,103.76973269177
"S02021B000","Fairprice","NTUC FAIRPRICE CO-OPERATIVE LTD","510 BISHAN STREET 13 #01-520, S(570510)","570510",1.34888843900173,103.849691980373
"S02023V000","Fairprice finest","NTUC FAIRPRICE CO-OPERATIVE LTD","9 BISHAN PLACE #B1-20, JUNCTION 8 SHOPPING CENTRE S(579837)","579837",1.3501820033849,103.848515664081
"S02025P000","Chin guan hin minimart","LIM KING CHEW","6 HOUGANG AVENUE 3 #01-82, S(530006)","530006",1.36271446291047,103.893980503167
"S02026N000","Fairprice","NTUC FAIRPRICE CO-OPERATIVE LTD","90 HOUGANG AVENUE 10 #B1-07, HOUGANG MALL S(538766)","538766",1.37253315637342,103.893883460466
"S02027L000","Fairprice","NTUC FAIRPRICE CO-OPERATIVE LTD","682 HOUGANG AVENUE 4 #01-310, S(530682)","530682",1.37361830380888,103.885748856217
"S02028K000","Fairprice","NTUC FAIRPRICE CO-OPERATIVE LTD","202 HOUGANG STREET 21 #01-00, S(530202)","530202",1.35752772836952,103.884028949439
"S02029J000","Fairprice","NTUC FAIRPRICE CO-OPERATIVE LTD","1 HOUGANG STREET 91 #02-01, HOUGANG POINT S(538692)","538692",1.37561464129476,103.879483534695
"S02031V000","Chop ah tat mini supermarket","TAN CHUAN BOON","309 HOUGANG AVENUE 5 #01-293, S(530309)","530309",1.36620554681345,103.895152424666
"S02033P000","Cold storage","COLD STORAGE SINGAPORE (1983) PTE LTD","440 PASIR RIS DRIVE 4 #01-01, S(510440)","510440",1.36900809318444,103.958696603631
"S02034N000","Fairprice","NTUC FAIRPRICE CO-OPERATIVE LTD","1 PASIR RIS CENTRAL STREET 3 #B1-10, S(518457)","518457",1.37228761596577,103.949733905672
"S02036K000","Giant","COLD STORAGE SINGAPORE (1983) PTE LTD","9 TAMPINES STREET 32 #01-30, S(529286)","529286",1.35416723967718,103.959935925418
"S02037J000","One supermarket","ONE SUPERMARKET PTE. LTD.","201B TAMPINES STREET 21 #01-1091, S(522201)","522201",1.35345315769813,103.953009918868
"S02038E000","Giant","COLD STORAGE SINGAPORE (1983) PTE LTD","829 TAMPINES STREET 81 #01-284/8, S(520829)","520829",1.34922419580696,103.934912515373
"S02039C000","Fairprice","NTUC FAIRPRICE CO-OPERATIVE LTD","4 TAMPINES CENTRAL 5 #B1-12, TAMPINES MALL S(529510)","529510",1.35250468330971,103.944682574769
"S02040X000","Prime supermarket","PRIME SUPERMARKET LIMITED","823 TAMPINES STREET 81 #01-160, S(520823)","520823",1.3487449454775,103.934024716838
"S02041P000","Prime food & grocer","PRIME SUPERMARKET (1996) PTE LTD","2 TAMPINES CENTRAL 5 #B1-07, CENTURY SQUARE S(529509)","529509",1.35227804040128,103.943727694121
"S02048B000","Sheng siong supermarket","SHENG SIONG SUPERMARKET PTE LTD","739A BEDOK RESERVOIR ROAD #01-01, MULTI STOREY CAR PARK S(471739)","471739",1.33824203227296,103.923303932165
"S02049A000","Fairprice","NTUC FAIRPRICE CO-OPERATIVE LTD","745 BEDOK RESERVOIR ROAD #01-3015, S(470745)","470745",1.33741910491466,103.921782969068
"S02051L000","Fairprice","NTUC FAIRPRICE CO-OPERATIVE LTD","192 LORONG 4 TOA PAYOH #01-672, S(310192)","310192",1.33166814812852,103.850487239503
"S02052K000","Fairprice","NTUC FAIRPRICE CO-OPERATIVE LTD","475 TAMPINES STREET 44 #01-145, S(520475)","520475",1.36032331939995,103.953129640464
"S02053J000","Fairprice","NTUC FAIRPRICE CO-OPERATIVE LTD","107 TAMPINES STREET 11 #01-353/9, S(521107)","521107",1.34836421842072,103.948158723814
"S02054E000","Fairprice","NTUC FAIRPRICE CO-OPERATIVE LTD","11 RIVERVALE CRESCENT #03-01, RIVERVALE MALL S(545082)","545082",1.39250410994833,103.904483668323
"S02055C000","Fairprice","NTUC FAIRPRICE CO-OPERATIVE LTD","118 RIVERVALE DRIVE #01-08, RIVERVALE PLAZA S(540118)","540118",1.38550420775531,103.901988424927
"S02056B000","Fairprice finest","NTUC FAIRPRICE CO-OPERATIVE LTD","301 UPPER THOMSON ROAD #03-25, THOMSON PLAZA S(574408)","574408",1.35479436177561,103.830924910072
"S02057A000","Giant","COLD STORAGE SINGAPORE (1983) PTE LTD","181 LORONG 4 TOA PAYOH #01-602, S(310181)","310181",1.33361936151806,103.850978678264
"S02058V000","Sheng siong supermarket","SHENG SIONG SUPERMARKET PTE LTD","200 UPPER THOMSON ROAD #B1-01, THOMSON IMPERIAL COURT S(574424)","574424",1.35184499157062,103.836053648292
"S02059X000","Prime supermarket","PRIME SUPERMARKET (1996) PTE LTD","106 HOUGANG AVENUE 1 #01-1213, S(530106)","530106",1.3537029714401,103.890680792553
"S02103A000","Fairprice","NTUC FAIRPRICE CO-OPERATIVE LTD","500 LORONG 6 TOA PAYOH, HDB HUB S(310500)","310500",1.33296549735939,103.847050346651
"S02127E000","Prime supermarket","PRIME SUPERMARKET LIMITED","108 PUNGGOL FIELD #01-02, S(820108)","820108",1.39649861628108,103.908866307025
"S02151E000","Prime supermarket","PRIME SUPERMARKET LIMITED","263 COMPASSVALE STREET #01-01, S(540263)","540263",1.39484816528775,103.896042268385
"S02169J000","Giant","COLD STORAGE SINGAPORE (1983) PTE LTD","525 ANG MO KIO AVENUE 10 #01-2401, S(560525)","560525",1.37262666876272,103.853976743801
"S02185J000","Giant","COLD STORAGE SINGAPORE (1983) PTE LTD","982 BUANGKOK CRESCENT #01-01, S(530982)","530982",1.3808503546459,103.879309094304
"S02204N000","Giant","COLD STORAGE SINGAPORE (1983) PTE LTD","260 KIM KEAT AVENUE #01-01, S(310260)","310260",1.331999623417,103.857378530285
"S02210X000","Giant express","COLD STORAGE SINGAPORE (1983) PTE LTD","631 BEDOK RESERVOIR ROAD #01-954, S(470631)","470631",1.33295873271663,103.914941831215
"S91085V000","Fairprice","NTUC FAIRPRICE CO-OPERATIVE LTD","110 LENGKONG TIGA #01-233/5, S(410110)","410110",1.323653452481,103.910853623161
"S93171X000","Ang mo","ANG MO SUPERMARKET PTE LTD","642 HOUGANG AVENUE 8 #01-197, S(530642)","530642",1.37169878879803,103.879948293051
"S94081C000","Fairprice","NTUC FAIRPRICE CO-OPERATIVE LTD","279 BISHAN STREET 24 #01-62/64, S(570279)","570279",1.35722283118337,103.843785252615
"S97079B000","Sheng siong supermarket","SHENG SIONG SUPERMARKET PTE LTD","4 LORONG 7 TOA PAYOH #01-107, S(310004)","310004",1.33904479783226,103.85554106336
"S97166P000","Cold storage","COLD STORAGE SINGAPORE (1983) PTE LTD","21 HOUGANG STREET 51 #01-52, HOUGANG GREEN SHOPPING MALL S(538719)","538719",1.37931783499145,103.88784708944
"SCE19004X000","Murugan traders","MURUGAN TRADERS PTE. LTD.","88 DESKER ROAD, S(209610)","209610",1.30849533074696,103.85574632461
"SCE19007L000","Hao mart","HAO MART PTE. LTD.","13 STAMFORD ROAD #B2-13,#B2-14,#B2-15,#B2-16,#B2-17,#B2-18,#B2-19,#B2-20,#B2-21, CAPITOL PIAZZA S(178905)","178905",1.29307884763132,103.851261982149
"SCE19018E000","The gourmet pantry","American Club, The","10 CLAYMORE HILL, AMERICAN CLUB S(229573)","229573",1.30834380578061,103.83263001321
"SCE19020X000","Jasons deli by cold storage","COLD STORAGE SINGAPORE (1983) PTE LTD","2 ORCHARD TURN #B4-01, ION ORCHARD S(238801)","238801",1.30419142102398,103.831510144742
"SCE20024E000","Ryan's grocery","RYAN'S GROCERY (GWC) PTE. LTD.","1 KIM SENG PROMENADE #B1-144,#B1-145, GREAT WORLD CITY S(237994)","237994",1.2934759620704,103.831975865363
"SCE20032E000","Fairprice","NTUC FAIRPRICE CO-OPERATIVE LTD","2 SERANGOON ROAD #B1-06,#B1-07,#B1-08,#B1-09, TEKKA PLACE S(218227)","218227",1.30512222179237,103.851438822181
"SCE20035A000","Mmmm!","WATER TIGER TRADING PTE. LTD.","238 THOMSON ROAD #01-79/80, NOVENA SQUARE S(307683)","307683",1.32021100706836,103.843656761867
"SCE20042B000","Fortune supermarket","FORTUNE SUPERMARKET PTE. LTD.","233 LORONG 8 TOA PAYOH #01-260, TOA PAYOH EIGHT S(310233)","310233",1.33828365922679,103.858467966719
"SCE20058J000","Prime supermarket","PRIME SUPERMARKET (1996) PTE LTD","106 BIDADARI PARK DRIVE #01-06, S(340106)","340106",1.33369947750043,103.870796085779
"SCE20059E000","Sheng siong supermarket","SHENG SIONG SUPERMARKET PTE LTD","455 SENGKANG WEST AVENUE #01-16, S(790455)","790455",1.39183688254074,103.871190376558
"SCE20061X000","Aim","HAO MART PTE. LTD.","90 BRAS BASAH ROAD #B1-13,#B1-13A,#B1-14,#B1-14A,#B1-15,#B1-15A,#B1-16,#B1-16A,#B1-17,#B1-17A, ESPLANADE MRT STATION S(189562)","189562",1.29309408587041,103.855583933723
"SCE20063N000","Fairprice finest","NTUC FAIRPRICE CO-OPERATIVE LTD","12 ALEXANDRA VIEW #01-18, ARTRA S(158736)","158736",1.29012765494819,103.816552347869
"SCE20072L000","Big harvest supermarket","BIG HARVEST SUPERMARKET PTE. LTD.","279 BALESTIER ROAD #01-06, BALESTIER POINT S(329727)","329727",1.32281193728737,103.852026274201
"SCE20090J000","Chorok market","CHOROK MARKET PTE. LTD.","277 ORCHARD ROAD #B1-05, ORCHARD GATEWAY S(238858)","238858",1.30040317266733,103.83972034182
"SCE20097P000","Family needs","FAMILY NEEDS  CITYGATE PTE. LTD.","371 BEACH ROAD #01-06,#01-07, CITY GATE S(199597)","199597",1.30231590504573,103.862331661034
"SCE20100P000","Chinese international commodity city","CHINESE INTERNATIONAL COMMODITY CITY PTE. LTD.","1 PARK ROAD #04-63,#05-01, PEOPLE'S PARK COMPLEX S(059108)","059108",1.2842004105509,103.842614527819
"SCE20103K000","Meidi-ya supermarket","MEIDI-YA SINGAPORE CO (PTE) LTD","9 RAFFLES BOULEVARD #02-26/36, MILLENIA WALK S(039596)","039596",1.29296504146626,103.859343968909
"SCE20105E000","Our boss","OURBOSS PTE. LTD.","19 SHELFORD ROAD #01-53, S(288408)","288408",1.32686143130016,103.812305598569
"SCE20119P000","Green olive group","GREEN OLIVE GROUP PTE. LTD.","1 PARK ROAD #02-70, PEOPLE'S PARK COMPLEX S(059108)","059108",1.2842004105509,103.842614527819
"SCE21010K000","Mb supermart","MUOI MUOI TRADING","3 ST. GEORGE'S ROAD #01-113, ST GEORGE'S WEST GARDENS S(320003)","320003",1.3225873518737,103.861107276991
"SCE21013C000","Atas palate","ATAS PALATE PRIVATE LIMITED","138 ROBINSON ROAD #03-10, OXLEY TOWER S(068906)","068906",1.27870608494088,103.848418970551
"SCE21019N000","Japanholic","JAPANHOLIC PTE. LTD.","138 ROBINSON ROAD #02-36, OXLEY TOWER S(068906)","068906",1.27870608494088,103.848418970551
"SCE21026P000","Maturo","MATURO PTE. LTD.","371 BEACH ROAD #B1-17, CITY GATE S(199597)","199597",1.30231590504573,103.862331661034
"SCE21033X000","Sol mart","SOL MART PTE. LTD.","10 SINARAN DRIVE #03-06,#03-07,#03-08, SQUARE 2 S(307506)","307506",1.32044103104797,103.844192628979
"SCE21048C000","Sankranti fresh","CALIBER ESSENTIALS PTE. LTD.","80 SYED ALWI ROAD #01-01, S(207659)","207659",1.308907388657,103.856134843824
"SCE21051N000","Don don donki","PAN PACIFIC RETAIL MANAGEMENT (SINGAPORE) PTE. LTD.","3 TEMASEK BOULEVARD #02-380,#02-381,#02-382,#02-383,#02-384,#02-385,#02-386,#02-387,#02-379, SUNTEC CITY MALL S(038983)","038983",1.29571152468885,103.858552585838
"SE04012L000","Fairprice","NTUC FAIRPRICE CO-OPERATIVE LTD","2 JOO CHIAT ROAD #01-1139, JOO CHIAT COMPLEX S(420002)","420002",1.31553964446015,103.898764895693
"SE04040C000","Prime supermarket","PRIME SUPERMARKET LIMITED","1 UPPER ALJUNIED LANE #01-01, S(360001)","360001",1.33429242412799,103.878746207181
"SE04069A000","Sheng siong supermarket","SHENG SIONG SUPERMARKET PTE LTD","209 NEW UPPER CHANGI ROAD #01-631, S(460209)","460209",1.32463573076034,103.931068829397
"SE04109X000","Mcp fairmart","MCP FAIRMART PTE. LTD.","89 BEDOK NORTH STREET 4 #01-107, S(460089)","460089",1.33233468349262,103.938051284737
"SE04130B000","Fairprice","NTUC FAIRPRICE CO-OPERATIVE LTD","41 JALAN TIGA #01-05, S(390041)","390041",1.30780796198663,103.884767622977
"SE05117K000","Fairprice","TEO BOBBY","253 SERANGOON CENTRAL DRIVE #01-241, S(550253)","550253",1.35403939780038,103.870851534185
"SE06112L000","Hao mart","HAO MART PTE. LTD.","15 SIGLAP ROAD #01-01, MANDARIN GARDENS S(448912)","448912",1.30706075671037,103.9237697621
"SE06125B000","Hao mart","HAO MART PTE. LTD.","54 BAYSHORE ROAD #01-07-08, BAYSHORE PARK S(469979)","469979",1.31179544227276,103.936894506125
"SE06465L000","Sing hiong market bakery","TAN PAK NANG","387 UPPER ALJUNIED ROAD, S(367872)","367872",1.33312324236673,103.878841894011
"SE06616X000","Hoe kee huat supermarket","LIN POH LING","212 LORONG 8 TOA PAYOH #01-43/45, S(310212)","310212",1.34064293639026,103.85433449712
"SE07216L000","Cold storage","COLD STORAGE SINGAPORE (1983) PTE LTD","5 STADIUM WALK #B1-01, LEISURE PARK S(397693)","397693",1.30222177381282,103.876152665088
"SE07559P000","Fairprice","NTUC FAIRPRICE CO-OPERATIVE LTD","65 AIRPORT BOULEVARD #B2-10, CHANGI AIRPORT TERMINAL 3 S(819663)","819663",1.35608608319883,103.986610582558
"SE09608P000","Cold storage","COLD STORAGE SINGAPORE (1983) PTE LTD","56 MARINE TERRACE #01-259, S(440056)","440056",1.30560569433107,103.91537607851
"SE10564B000","Fairprice xtra","NTUC FAIRPRICE CO-OPERATIVE LTD","23 SERANGOON CENTRAL #03-42, NEX S(556083)","556083",1.35064579494756,103.872590477492
"SE10579K000","Cold storage","COLD STORAGE SINGAPORE (1983) PTE LTD","23 SERANGOON CENTRAL #B2-44/45, NEX S(556083)","556083",1.35064579494756,103.872590477492
"SE11071C000","Fairprice","NTUC FAIRPRICE CO-OPERATIVE LTD","89 BEDOK NORTH STREET 4 #01-77/79, S(460089)","460089",1.33233468349262,103.938051284737
"SE11136C000","I-tec supermart","I-TEC SUPERMART PTE LTD","498/500 GEYLANG ROAD, GREEN COURT S(389456)","389456",1.313289737192,103.885153835516
"SE11317V000","En frozen","EN FROZEN PTE. LTD.","1 GEYLANG SERAI #01-198, S(402001)","402001",1.31667885583161,103.898102655979
"SE11505P000","Cold storage","COLD STORAGE SINGAPORE (1983) PTE LTD","291 JOO CHIAT ROAD #01-01, S(427543)","427543",1.3098709702541,103.902354993065
"SE11577E000","Fairprice","NTUC FAIRPRICE CO-OPERATIVE LTD","612-620 GEYLANG ROAD, S(389551)","389551",1.31415001272084,103.888544866086
"SE11799C000","Ultramart","CP MANAGEMENT SERVICES PRIVATE LIMITED","80 TANAH MERAH COAST ROAD #01-02, CHANGI LODGE 2 S(498820)","498820",1.32736602101872,104.004244172964
"SE11947P000","Fairprice finest","NTUC FAIRPRICE CO-OPERATIVE LTD","5 CHANGI BUSINESS PARK CENTRAL 1 #B1-08/11, CHANGI CITY POINT S(486038)","486038",1.33408363820793,103.962946043413
"SE11D22K000","Mmmm!","WATER TIGER INVESTMENTS PTE. LTD.","5 CHANGI BUSINESS PARK CENTRAL 1 #B1-23, CHANGI CITY POINT S(486038)","486038",1.33408363820793,103.962946043413
"SE12D97J000","New zealand fresh","NEW ZEALAND FRESH PTE. LTD.","201 TELOK KURAU ROAD #01-05, S(423910)","423910",1.31212247482399,103.911185983674
"SE12F88V000","Sarathi store","SARATHI STORES PTE. LTD.","91 UPPER PAYA LEBAR ROAD, S(534821)","534821",1.33748492906751,103.887004163685
"SE12G19X000","Fairprice","NTUC FAIRPRICE CO-OPERATIVE LTD","8 CHANGI BUSINESS PARK AVENUE 1, UE BIZHUB EAST S(486018) #01-51 & #02-51","486018",1.3349065126609,103.963879755769
"SE13135L000","Fairprice","NTUC FAIRPRICE CO-OPERATIVE LTD","311 NEW UPPER CHANGI ROAD #B2-60, BEDOK MALL S(467360)","467360",1.32479361283131,103.929182068033
"SE13S71X000","Fairprice","NTUC FAIRPRICE CO-OPERATIVE LTD","57 NEW UPPER CHANGI ROAD #01-1334, S(461057)","461057",1.32424554153984,103.941568704132
"SE13S89V000","Cold storage","COLD STORAGE SINGAPORE (1983) PTE LTD","2 FIRST STREET #01-05-16, SIGLAP V S(458278)","458278",1.31275329709404,103.923657863473
"SE13U91V000","Fairprice","NTUC FAIRPRICE CO-OPERATIVE LTD","30 EAST COAST ROAD #01-06-09, VILLAGE HOTEL KATONG S(428751)","428751",1.30386120759163,103.902871405205
"SE14377P000","Cold storage","COLD STORAGE SINGAPORE (1983) PTE LTD","430 UPPER CHANGI ROAD #01-47, EAST VILLAGE S(487048)","487048",1.3317758150305,103.946201241591
"SE14441L000","Sheng siong supermarket","SHENG SIONG SUPERMARKET PTE LTD","6 POTONG PASIR AVENUE 2 #01-03, POTONG PASIR COMMUNITY CLUB S(358361)","358361",1.33258296864442,103.867139786368
"SE14467N000","Fairprice","NTUC FAIRPRICE CO-OPERATIVE LTD","1 STADIUM PLACE #01-29, KALLANG WAVE MALL S(397628)","397628",1.30307515150401,103.873149707591
"SE14775X000","Fairprice","NTUC FAIRPRICE CO-OPERATIVE LTD","3 SIMEI STREET 6 #05-01, EASTPOINT MALL S(528833)","528833",1.34269199750599,103.953050756306
"SE14875L000","Hao mart","HAO MART PTE. LTD.","11 TANJONG KATONG ROAD #B1-36, KINEX S(437157)","437157",1.31461849889242,103.894738004496
"SE14965K000","Meat collective","MEAT COLLECTIVE SINGAPORE PRIVATE LIMITED","342 TANJONG KATONG ROAD, S(437112)","437112",1.30373387351391,103.89649832916
"SE14A83A000","Cold storage","COLD STORAGE SINGAPORE (1983) PTE LTD","60 PAYA LEBAR ROAD #B1-01-05, PAYA LEBAR SQUARE S(409051)","409051",1.31881486980278,103.892580778242
"SE14C27C000","Zac butchery","COMMONWEALTH CONCEPTS PTE. LTD.","1B FIGARO STREET, OPERA ESTATE S(458322)","458322",1.31574937142261,103.925857001244
"SE15043B000","Foodie market place","FOODIE MARKET PLACE PTE. LTD.","313 TANJONG KATONG ROAD, S(437096)","437096",1.30608655778768,103.896150403005
"SE15464L000","Abedin minimart","ABEDIN TRADING PTE. LTD.","599 GEYLANG ROAD #01-01, S(389538)","389538",1.31420608181449,103.88669948112
"SE16233J000","Sheng siong supermarket","SHENG SIONG SUPERMARKET PTE LTD","18B CIRCUIT ROAD #01-260, MACPHERSON RESIDENCY S(372018)","372018",1.32918105126141,103.888248441219
"SE17082P000","Fairprice","NTUC FAIRPRICE CO-OPERATIVE LTD","18 TAI SENG STREET #B1-13, S(539775)","539775",1.33631557522577,103.888825620348
"SE17345J000","Jsj minimart","JSJ CORPORATION PTE. LTD.","31A TANAH MERAH COAST ROAD #01-01, S(498720)","498720",1.32187768746827,103.987506651389
"SE17401C000","Tim's frozen","TANG KER AN, TIMOTHY","18 BEDOK SOUTH ROAD #01-67, S(460018)","460018",1.32062504871279,103.934734222428
"SE17481P000","Fairprice","NTUC FAIRPRICE CO-OPERATIVE LTD","10 EUNOS ROAD 8 #B1-104,#B1-103,#B1-102,#B1-105,#B1-101, SINGAPORE POST CENTRE S(408600)","408600",1.31898220434607,103.894722842965
"SE17500A000","Hao mart","HAO MART PTE. LTD.","69 BEDOK SOUTH AVENUE 3 #01-484, S(460069)","460069",1.31935026360524,103.943632360195
"SE18184V000","Hao mart","HAO MART PTE. LTD.","448/450 GEYLANG ROAD, S(389407)","389407",1.31317460794729,103.8836465666
"SE18544L000","Jmd retail","JMD RETAIL PTE. LTD.","330 TANJONG KATONG ROAD, S(437106)","437106",1.30416447022908,103.896326993346
"SE19104A000","Fairprice finest","NTUC FAIRPRICE CO-OPERATIVE LTD","78 AIRPORT BOULEVARD #B2-206,#B2-205,#B2-207,#B2-208, S(819666)","819666",1.36023106736765,103.989457201894
"SE19557P000","The seafood market place by song fish","SONG FISH DEALER PTE LTD","10 PAYA LEBAR ROAD #B2-11, S(409057)","409057",1.31756115921,103.892836694432
"SE19562A000","Fairprice","NTUC FAIRPRICE CO-OPERATIVE LTD","10 PAYA LEBAR ROAD #B2-09, S(409057)","409057",1.31756115921,103.892836694432
"SNE19006A000","Sheng siong supermarket","SHENG SIONG SUPERMARKET PTE LTD","602A TAMPINES AVENUE 9 #01-01, S(521602)","521602",1.36113645824177,103.937425593435
"SNE19019L000","Prime supermarket","PRIME SUPERMARKET (1996) PTE LTD","322 SUMANG WALK #01-07, MULTI STOREY CAR PARK S(820322)","820322",1.41124703512714,103.897501361265
"SNE20031P000","U stars supermarket","U STARS SUPERMARKET PTE. LTD.","829 TAMPINES STREET 81 #01-272,#01-274,#01-276,#01-278, TAMPINES GROVE S(520829)","520829",1.34922419580696,103.934912515373
"SNE20033L000","Danisha trading","DANISHA TRADING PTE. LTD.","476 UPPER SERANGOON VIEW #02-14, HOUGANG CAPEVIEW S(530476)","530476",1.37743337773735,103.903713550367
"SNE20045C000","The foodcellar","CLEMENTS FOODCELLAR PTE. LTD.","39 LOWLAND ROAD, LOWLAND GARDEN S(547441)","547441",1.36140252859334,103.883163889476
"SNE20089B000","Our boss","OURBOSS PTE. LTD.","625 ELIAS ROAD #01-330, ELIAS MALL S(510625)","510625",1.37860239032585,103.941978177673
"SNE20114L000","Redman by phoon huat","PHOON HUAT PTE. LTD.","1 PASIR RIS CLOSE #01-101, E!HUB@DOWNTOWN EAST S(519599)","519599",1.3766980678365,103.95514122442
"SNE20115K000","Pandamart","DELIVERY HERO STORES (SINGAPORE) PTE. LTD.","756 UPPER SERANGOON ROAD #01-09,#01-10,#01-11,#01-12,#01-13,#01-14, UPPER SERANGOON SHOPPING CENTRE S(534626)","534626",1.35348082277147,103.878828134896
"SNE20117E000","Pandamart","DELIVERY HERO STORES (SINGAPORE) PTE. LTD.","500 NEW PUNGGOL ROAD #01-03,#01-04,#01-05, THE PUNGGOL SETTLEMENT S(828617)","828617",1.42088392750942,103.912199519838
"SNE21004N000","Jo market","JO MARKET","505 TAMPINES CENTRAL 1 #01-333,#01-335, S(520505)","520505",1.3555484823662,103.945616071023
"SNE21016E000","Don don donki","PAN PACIFIC RETAIL MANAGEMENT (SINGAPORE) PTE. LTD.","1 PASIR RIS CLOSE #01-339,#01-347, E!HUB@DOWNTOWN EAST S(519599)","519599",1.3766980678365,103.95514122442
"SNE21038P000","Ace dynamic","ACE DYNAMIC HOLDINGS PTE. LTD.","151 LORONG CHUAN #01-22, NEW TECH PARK S(556741)","556741",1.35206196118771,103.860698338514
"SNE21044V000","Prime supermarket","PRIME SUPERMARKET (1996) PTE LTD","610 TAMPINES NORTH DRIVE 1 #01-11, S(520610)","520610",1.36463646143194,103.937173937407
"SNE21047N000","Cut butchery","CAVENDISH SUPPLIES PTE. LTD.","1 MAJU AVENUE #B1-06, MYVILLAGE AT SERANGOON GARDEN S(556679)","556679",1.3652806057289,103.865101220515
"SNE21057K000","Toko warisan halal frozen","TOKO WARISAN TRADING","201D TAMPINES STREET 21 #01-1159, S(524201)","524201",1.35226231425316,103.953586491358
"SNW19005L000","Sheng siong supermarket","SHENG SIONG SUPERMARKET PTE LTD","182 WOODLANDS STREET 13 #01-01, MULTI STOREY CAR PARK S(730182)","730182",1.43515895067377,103.776023343198
"SNW19010X000","Prime supermarket","PRIME SUPERMARKET (1996) PTE LTD","365 SEMBAWANG CRESCENT #01-01, S(750365)","750365",1.44436832551494,103.816263881257
"SNW19021L000","Sheng siong supermarket","SHENG SIONG SUPERMARKET PTE LTD","202 MARSILING DRIVE #01-138,#01-150, S(730202)","730202",1.44315121142693,103.775164777049
"SNW20023C000","Any mo supermarket","ANG MO SUPERMARKET PTE LTD","361 SEMBAWANG CRESCENT #01-10, MULTI STOREY CAR PARK S(750361)","750361",1.44631506781839,103.813936813705
"SNW20026V000","Sheng siong supermarket","SHENG SIONG SUPERMARKET PTE LTD","6 MANDAI LINK, CMM Marketing Management Pte Ltd S(728652)","728652",1.40969393759909,103.756910810773
"SNW20038L000","Ang mo supermarket","ANG MO SUPERMARKET PTE LTD","693 WOODLANDS AVENUE 6 #01-01, MULTI STOREY CAR PARK S(730693)","730693",1.43808788056635,103.803764959272
"SNW20050V000","Fairprice","NTUC FAIRPRICE CO-OPERATIVE LTD","133 CANBERRA VIEW #B1-03,#B1-04, S(750133)","750133",1.44349544527985,103.830345369213
"SNW20055K000","The seafood market place by song fish","SONG FISH DEALER PTE LTD","1 JELEBU ROAD #01-32, BUKIT PANJANG PLAZA S(677743)","677743",1.37989494369864,103.764459887796
"SNW20062L000","Redman by phoon huat","PHOON HUAT PTE. LTD.","1 JELEBU ROAD #01-33/34, BUKIT PANJANG PLAZA S(677743)","677743",1.37989494369864,103.764459887796
"SNW20069V000","Meat united","MEAT UNITED PRIVATE LIMITED","896 DUNEARN ROAD #01-08, LINK@896 S(589472)","589472",1.33669726404395,103.783723416319
"SNW20076A000","Neue mart","NM EK PTE. LTD.","19 ENG KONG TERRACE, ENG KONG PARK S(598991)","598991",1.3364085024668,103.768270552015
"SNW20106A000","Chennai trading & supermart","CHENNAI TRADING & SUPERMART PTE. LTD.","100 SEMBAWANG DRIVE #01-15, COCHRANE RECREATION CENTRE S(756998)","756998",1.46092468732297,103.817179770561
"SNW20113B000","Nawas global","NAWAS GLOBAL PTE. LTD.","18A KRANJI WAY #01-03, KRANJI WAY DORMITORY S(739443)","739443",1.43830097418883,103.745481915822
"SNW21002E000","Phoon huat","PHOON HUAT PTE. LTD.","51 YISHUN CENTRAL 1 #01-03, YISHUN 10 CINEMA COMPLEX S(768794)","768794",1.42991718038493,103.836421473445
"SNW21020B000","Karaikudi minimart","SRI IDAIYANKALI PTE. LTD.","180 WOODLANDS INDUSTRIAL PARK E5 #01-03, WOODLANDS AUTO HUB S(757512)","757512",1.45200129785274,103.79268387285
"SSE19017X000","7mall shop","7MALL.SHOP PTE. LTD.","447 CHANGI ROAD, S(419875)","419875",1.31915166105681,103.912117831845
"SSE20034L000","Bnm trading","BNM TRADING PTE. LTD.","269 JOO CHIAT ROAD, S(427523)","427523",1.31034574970684,103.901856226132
"SSE20037E000","Al forno","AL FORNO (EAST COAST) PTE LTD","693 EAST COAST ROAD, FRANKEL ESTATE S(459058)","459058",1.31190105580921,103.921875613238
"SSE20041N000","Ever+","Sun Rui","184 EAST COAST ROAD #01-, S(428890)","428890",1.30676742950645,103.906559306672
"SSE20077L000","Grabmart - southeast","KITCHEN BY GRABFOOD (SINGAPORE) PTE. LTD.","160 CHANGI ROAD #01-10, HEXACUBE S(419728)","419728",1.3167232592555,103.902443640278
"SSE20087J000","Our boss","OURBOSS PTE. LTD.","28 FERNWOOD TERRACE #01-01, S(458556)","458556",1.30944627972031,103.925025756325
"SSE20099A000","Bowl & bowl","BOWLICIOUS PTE. LTD.","3 IRVING ROAD #01-19, TAI SENG CENTRE S(369522)","369522",1.33579982244774,103.886875022095
"SSE21003X000","Mr farmer","MR FARMER","2 JALAN LOKAM #01-47, KENSINGTON SQUARE S(537846)","537846",1.34560719747232,103.882695128109
"SSE21005N000","Fairprice hypermart","NTUC FAIRPRICE CO-OPERATIVE LTD","80 MARINE PARADE ROAD #03-28, PARKWAY PARADE S(449269)","449269",1.30106068019409,103.905339493587
"SSE21017E000","Little farms","LITTLE FARMS PTE. LTD.","451 JOO CHIAT ROAD #01-01,#01-03, KATONG POINT S(427664)","427664",1.3068658993424,103.904564981167
"SSE21022L000","Bloopbloop market","BLOOPBLOOP MARKET LLP","26A CHAI CHEE ROAD #01-399, S(461026) PART OF LEFT","461026",1.32370047880354,103.923497151617
"SSE21053V000","Baggie's deli","BAGGIE'S PTE. LTD.","236 JOO CHIAT ROAD, S(427493) Level 1","427493",1.311723245498,103.900604772211
"SSE21054X000","Aunty's supermart trading","AUNTY'S SUPERMART TRADING PTE. LTD.","58 MARINE TERRACE #01-67, MARINE TERRACE HAVEN S(440058)","440058",1.30611781253448,103.914026029355
"SSW19008P000","S power supermart","S POWER GLOBAL PTE. LTD.","18 SUNGEI KADUT STREET 2 #01-05, SUNGEI KADUT INDUSTRIAL ESTATE S(729236)","729236",1.41260803090908,103.747937640796
"SSW19009N000","Svs distribution (level 1)","SVS DISTRIBUTION PTE. LTD.","129 TUAS VIEW SQUARE, WESTLINK TECHPARK S(637741)","637741",1.30117599336633,103.628177329762
"SSW19022V000","Don don donki","PAN PACIFIC RETAIL MANAGEMENT (SINGAPORE) PTE. LTD.","50 JURONG GATEWAY ROAD #2-24,#2-25,#2-26,#3-27, JEM S(608549)","608549",1.3325523295069,103.743262234833
"SSW20065P000","Fairprice finest","NTUC FAIRPRICE CO-OPERATIVE LTD","4 BUKIT BATOK STREET 41 #01-91,#01-92, LE QUEST S(657991)","657991",1.35594171176111,103.741127005764
"SSW20070A000","Redman by phoon huat","PHOON HUAT PTE. LTD.","3 GATEWAY DRIVE #B1-23, WESTGATE S(608532)","608532",1.33415752008876,103.742766489597
"SSW20071V000","Don don donki","PAN PACIFIC RETAIL MANAGEMENT (SINGAPORE) PTE. LTD.","1 MARITIME SQUARE #03-23/38, HARBOURFRONT CENTRE S(099253)","099253",1.26401293230767,103.82005101011
"SSW20073P000","Frozen bagus","TANG KER AN, TIMOTHY","352 CLEMENTI AVENUE 2 #01-137, CLEMENTI AVENUE 2 SHOPPING CENTRE S(120352)","120352",1.31427860227337,103.771350557894
"SSW20085J000","The seafood place by chai","CHAI SEAFOOD","148F PASIR PANJANG ROAD, S(118553)","118553",1.27656491174,103.792125884569
"SSW20088B000","123 mart","123 MART PTE. LTD.","354 CLEMENTI AVENUE 2 #01-233, CLEMENTI AVENUE 2 SHOPPING CENTRE S(120354)","120354",1.31351386405455,103.770861088889
"SSW21007E000","Hao mart","HAO MART PTE. LTD.","4 JALAN MAT JAMBOL #B1-01/11, BIJOU S(119555)","119555",1.27685386351985,103.791742171785
"SSW21021K000","Karaikudi minimart","SRI SEVUGA PERUMAL PTE. LTD.","48 TOH GUAN ROAD EAST #01-98, ENTERPRISE HUB S(608586)","608586",1.33677373268472,103.75436219411
"SSW21031E000","Ggm minimart","GOWRI'S GLOBAL MARKETING PTE. LTD.","1A TUAS AVENUE 2 #01-03, S(639467)","639467",1.32160943931496,103.649583557099
"SSW21037P000","Fairprice","NTUC FAIRPRICE CO-OPERATIVE LTD","533 CHOA CHU KANG STREET 51 #01-01, LIMBANG SHOPPING CENTRE S(680533)","680533",1.39207387937105,103.743099576162
"SW04097K000","Prime supermarket","PRIME SUPERMARKET LIMITED","159 BUKIT BATOK STREET 11 #01-178, S(650159)","650159",1.34857537953675,103.742708636413
"SW04158X000","Fairprice","NTUC FAIRPRICE CO-OPERATIVE LTD","108 DEPOT ROAD #01-01, DEPOT HEIGHTS SHOPPING CENTRE S(100108)","100108",1.28096680702384,103.810298189643
"SW05008N000","Giant","COLD STORAGE SINGAPORE (1983) PTE LTD","638 JURONG WEST STREET 61 #03-01, PIONEER MALL S(640638)","640638",1.34167331883255,103.697244542805
"SW05051J000","Sheng siong supermarket","SHENG SIONG SUPERMARKET PTE LTD","720 CLEMENTI WEST STREET 2 #01-144, S(120720)","120720",1.30246408847832,103.763750972451
"SW06002X000","Toh guan minimart","TOH GUAN MINI MART PTE. LTD.","19 TOH GUAN ROAD EAST #01-65, S(608568)","608568",1.33833282914969,103.753535227945
"SW06590A000","Fairprice xtra","NTUC FAIRPRICE CO-OPERATIVE LTD","1 HARBOURFRONT WALK #01-23,#B1-23, VIVOCITY S(098585)","098585",1.26434458658544,103.822476140505
"SW06806E000","Lotte korean mart","LOTTE MART PTE. LTD.","17 LORONG KILAT #01-02, KILAT COURT S(598139)","598139",1.34082770311651,103.774215677961
"SW07070J000","Giant","COLD STORAGE SINGAPORE (1983) PTE LTD","284 BUKIT BATOK EAST AVENUE 3 #01-251, S(650284)","650284",1.34669905221409,103.757276700998
"SW07209E000","Sheng siong supermarket","SHENG SIONG SUPERMARKET PTE LTD","7 JURONG WEST AVENUE 5, S(649486)","649486",1.34878489718303,103.703415655017
"SW07331C000","Sheng siong supermarket","SHENG SIONG SUPERMARKET PTE LTD","352 CLEMENTI AVENUE 2 #01-91&99, S(120352)","120352",1.31427860227337,103.771350557894
"SW07481A000","Fairprice","NTUC FAIRPRICE CO-OPERATIVE LTD","28 DOVER CRESCENT #01-83, MULTI STOREY CAR PARK S(130028)","130028",1.30446092675742,103.781779696748
"SW07E27X000","Kingsmart","KINGSMART PTE. LTD.","30 30 PENJURU PLACE, 01-07, S(608557)","608557",1.31621113527515,103.732527239032
"SW08807K000","Cold storage","COLD STORAGE SINGAPORE (1983) PTE LTD","154 WEST COAST ROAD, WEST COAST PLAZA S(127371) #B1-19","127371",1.30358622534992,103.76610375397
"SW08821N000","Fairprice","NTUC FAIRPRICE CO-OPERATIVE LTD","140 TECK WHYE LANE #01-351, S(680140)","680140",1.38001805825626,103.753148377762
"SW08907C000","Gowris global marketing","GOWRI'S GLOBAL MARKETING PTE. LTD.","555 UPPER JURONG ROAD #01-02, S(638368)","638368",1.32882041921836,103.677161735755
"SW08A55C000","Chd @ soon lee","CHD @ SOON LEE PTE. LTD.","51 SOON LEE ROAD #01-51A, S(628088)","628088",1.33212291013902,103.699070261789
"SW08A59X000","Fairprice","NTUC FAIRPRICE CO-OPERATIVE LTD","63 JURONG WEST CENTRAL 3, JURONG POINT SHOPPING CENTRE S(648331) #03-01","648331",1.33931503949907,103.705351000543
"SW09032C000","Fairprice","NTUC FAIRPRICE CO-OPERATIVE LTD","21 CHOA CHU KANG NORTH 6 #B1-01-07, YEW TEE POINT S(689578)","689578",1.39708432396576,103.746598000147
"SW09133X000","Loch grocer","LOCH GROCER PTE. LTD.","503 JURONG WEST AVENUE 1 #01-847, S(640503)","640503",1.34995541462242,103.71770480961
"SW09285K000","Fairprice finest","NTUC FAIRPRICE CO-OPERATIVE LTD","61 CHOA CHU KANG DRIVE #01-01, YEW TEE MRT STATION S(689715)","689715",1.39712886294116,103.747329717481
"SW09288C000","Sadia supermarket & trading","SADIA SUPERMARKET & TRADING (S) PTE. LTD.","14 TECH PARK CRESCENT #01-02, S(638118)","638118",1.3106942813709,103.630190012756
"SW09426V000","Phang nee","PHANG NEE ENTERPRISE PTE. LTD.","2D JALAN PAPAN #01-04, S(619415)","619415",1.32124572258872,103.729969760603
"SW10780J000","Sharbesuwary express mart","SHARBESUWARY PTE. LTD.","32 TUAS VIEW SQUARE #01-02, S(637778)","637778",1.29865806391236,103.62808808355
"SW10A16E000","Fairprice finest","NTUC FAIRPRICE CO-OPERATIVE LTD","3155 COMMONWEALTH AVENUE WEST, THE CLEMENTI MALL S(129588) #B1-12/13/14","129588",1.31555354277949,103.764596439304
"SW11423N000","Sheng siong supermarket","SHENG SIONG SUPERMARKET PTE LTD","18 TECK WHYE LANE #01-95, S(680018)","680018",1.37829768797221,103.754071398872
"SW11452C000","Fairprice","NTUC FAIRPRICE CO-OPERATIVE LTD","78A TELOK BLANGAH STREET 32 #01-01, MULTI STOREY CAR PARK S(101078)","101078",1.27332805980948,103.808952023637
"SW11512N000","Kolee supermarkets","KEK HONG HENG","23 PENJURU WALK #03-81, CASSIA@PENJURU S(608537)","608537",1.31800980644852,103.73194890136
"SW11A26P000","Fairprice","NTUC FAIRPRICE CO-OPERATIVE LTD","460 ALEXANDRA ROAD, MTOWER S(119963) #01-09 & #01-16","119963",1.2734502483595,103.801682844021
"SW12C98J000","Don don donki","PAN PACIFIC RETAIL MANAGEMENT (SINGAPORE) PTE. LTD.","2 JURONG EAST CENTRAL 1 #B1-12, JCUBE S(609731)","609731",1.33326351781133,103.740317485186
"SW12F58E000","Fairprice","NTUC FAIRPRICE CO-OPERATIVE LTD","352 CLEMENTI AVENUE 2 #01-141, CLEMENTI AVENUE 2 SHOPPING CENTRE S(120352)","120352",1.31427860227337,103.771350557894
"SW12G70J000","Cold storage","COLD STORAGE SINGAPORE (1983) PTE LTD","101 CLEMENTI ROAD #01-01, KENT VALE ESTATE, NUS S(129787)","129787",1.30176130472397,103.769369391763
"SW12G71E000","Cold storage","COLD STORAGE SINGAPORE (1983) PTE LTD","1 COVE AVENUE, SENTOSA COVE ARRIVAL PLAZA S(098537) #02-07/08/09/10","098537",1.2471504050601,103.839555011268
"SW12H20A000","Fairprice","NTUC FAIRPRICE CO-OPERATIVE LTD","498 JURONG WEST STREET 41, #01-434/436/438 S(640498) #01-434/436/438","640498",1.34833335760515,103.724307319237
"SW12J94X000","J mart","TANESEI TRADING PTE. LTD.","1 VISTA EXCHANGE GREEN #B1-28, THE STAR VISTA S(138617)","138617",1.30681500712523,103.788462732266
"SW12J97L000","Cold storage","COLD STORAGE SINGAPORE (1983) PTE LTD","1 VISTA EXCHANGE GREEN, THE STAR VISTA S(138617) #B1-35/36 AND 02","138617",1.30681500712523,103.788462732266
"SW12L48X000","Ajmal trade mart","AJMAL TRADE MART PTE. LTD.","12 KRANJI ROAD, KRANJI LODGE ONE S(739522) 1ST STOREY","739522",1.43069359839388,103.759237290643
"SW12M64L000","Sheng siong supermarket","SHENG SIONG SUPERMARKET PTE LTD","25 GHIM MOH LINK #01-11, S(270025)","270025",1.30811886342473,103.786049384646
"SW12M67E000","Sheng siong supermarket","SHENG SIONG SUPERMARKET PTE LTD","420A CLEMENTI AVENUE 1 #01-01, S(121420)","121420",1.30973331229192,103.76863729776
"SW12N25V000","Cold storage","COLD STORAGE SINGAPORE (1983) PTE LTD","31 OCEAN WAY #01-26/27, QUAYSIDE ISLE, SENTOSA S(098375)","098375",1.24706997908317,103.842182970325
"SW12O05A000","Fairprice","NTUC FAIRPRICE CO-OPERATIVE LTD","502 WEST COAST DRIVE #01-41, S(120502)","120502",1.31190696353508,103.759128012412
"SW13245V000","Fairprice","NTUC FAIRPRICE CO-OPERATIVE LTD","1 LOWER KENT RIDGE ROAD #02-16, ONE@KENTRIDGE S(119082)","119082",1.2935128771923,103.7846855811
"SW13Q24X000","Fairprice","NTUC FAIRPRICE CO-OPERATIVE LTD","280 BUKIT BATOK EAST AVENUE 3 #01-315, S(650280)","650280",1.34762239826035,103.757150072517
"SW13T12J000","Fairprice xtra","NTUC FAIRPRICE CO-OPERATIVE LTD","50 JURONG GATEWAY ROAD #B1-21/22, JEM S(608549)","608549",1.3325523295069,103.743262234833
"SW13W88P000","Hao mart","HAO MART PTE. LTD.","3 GATEWAY DRIVE #B2-01, WESTGATE S(608532)","608532",1.33415752008876,103.742766489597
"SW14484J000","Sri murugan trading","SRI MURUGAN TRADING PTE. LTD.","48 TOH GUAN ROAD EAST #01-130, ENTERPRISE HUB S(608586)","608586",1.33677373268472,103.75436219411
"SW14542A000","Hillview market place","COLD STORAGE SINGAPORE (1983) PTE LTD","4 HILLVIEW RISE #02-07, HILLV2 S(667979)","667979",1.36267450828024,103.76417292006
"SW14633X000","Fairprice","NTUC FAIRPRICE CO-OPERATIVE LTD","2 BUKIT BATOK WEST AVENUE 7 #01-10, HomeTeamNS BUKIT BATOK CLUBHOUSE S(659003)","659003",1.36577391240463,103.748520902563
"SW14718K000","Ajmal supermart","AJMAL SUPER MART PTE. LTD.","70 TUAS SOUTH AVENUE 1 #01-40, TUAS VIEW DORMITORY S(637285)","637285",1.312703972078,103.626129413176
"SW14824J000","Shinva agro foods","SHINVA AGRO FOODS PTE. LTD.","11 TECH PARK CRESCENT #01-03, S(638121)","638121",1.31100240690691,103.631572303038
"SW14951X000","Warehouse club","NTUC FAIRPRICE CO-OPERATIVE LTD","1 JOO KOON CIRCLE #03-21, FAIRPRICE HUB S(629117)","629117",1.32460664929081,103.678096359775
"SW14A33P000","Vinayak traders","VINAYAK TRADERS PTE. LTD.","27 PENJURU WALK #01-08/09, PENJURU RECREATION CENTRE S(608538)","608538",1.31865728379443,103.733152140767
"SW14A98C000","Gurus supermarket","GURU'S MARKETING PTE. LTD.","27 PENJURU WALK #01-15, PENJURU RECREATION CENTRE S(608538)","608538",1.31865728379443,103.733152140767
"SW15051V000","Archana","ARCHANA PROVISION STORES PTE. LTD.","27 PENJURU WALK #01-06/07, PENJURU RECREATION CENTRE S(608538)","608538",1.31865728379443,103.733152140767
"SW15796X000","Fairprice","NTUC FAIRPRICE CO-OPERATIVE LTD","533 CHOA CHU KANG STREET 51 #01-11, LIMBANG SHOPPING CENTRE (HDB) S(680533)","HDB) S(680533",NA,NA
"SW15968N000","Fairprice","NTUC FAIRPRICE CO-OPERATIVE LTD","37 TEBAN GARDENS ROAD, #01-304/305/306 S(600037) #01-304/305/306","600037",1.32053143645806,103.742652199249
"SW15D03B000","Prime supermarket","PRIME SUPERMARKET (1996) PTE LTD","50 NANYANG AVENUE #NS3-01-27,#NS3-01-28,#NS3-01-26, NORTH SPINE , NTU S(639798)","639798",1.34382260860561,103.682773793248
"SW16224E000","Nawas global","NAWAS GLOBAL PTE. LTD.","3 TUAS SOUTH STREET 12 #01-16, TUAS SOUTH DORMITORY S(636947)","636947",1.27164225840049,103.63351227878
"SW16814X000","Vinayak traders","VINAYAK TRADERS PTE. LTD.","1 JALAN PAPAN #01-33,#01-34, S(619392)","619392",1.32087635946694,103.727545977964
"SW16901A000","Sadia supermarket & trading","SADIA SUPERMARKET & TRADING (S) PTE. LTD.","12 TUAS SOUTH STREET 13 #01-20/21, S(636937)","636937",1.27019585421212,103.634479625194
"SW16921N000","Chennai trading & supermarket","CHENNAI TRADING & SUPERMART PTE. LTD.","1 JALAN PAPAN #01-35,#01-36, S(619392)","619392",1.32087635946694,103.727545977964
"SW16942C000","Popular supermarket","POPULAR SUPERMARKET PTE. LTD.","12 TUAS SOUTH STREET 13 #01-18/19, S(636937)","636937",1.27019585421212,103.634479625194
"SW16B52K000","Ajmal trading group","AJMAL  TRADING GROUP PTE. LTD.","5 JALAN PAPAN #01-32, ASPRI-WESTLITE PAPAN S(619396)","619396",1.32207201524401,103.727545771811
"SW16D52V000","U stars supermarket","U STARS PTE. LTD.","810 CHOA CHU KANG AVENUE 7 #01-01, MULTI STOREY CAR PARK S(680810)","680810",1.3740546176425,103.746160942106
"SW16D83E000","Fairprice shop","NTUC FAIRPRICE CO-OPERATIVE LTD","249 JURONG EAST STREET 24 #01-106, S(600249)","600249",1.34256242291848,103.739259690369
"SW16E98J000","Phannee supermart","PHAN NEE INVESTMENTS (S) PTE. LTD.","500 OLD CHOA CHU KANG ROAD #01-21, S(698924)","698924",1.37761084648511,103.718403750945
"SW16H70N000","Malar marketing","MALAR MARKETING PTE. LTD.","69 TUAS SOUTH AVENUE 1 #01-02, SEATOWN INDUSTRIAL CENTRE S(637589)","637589",1.31335079454993,103.627473853217
"SW17592A000","The seafood market place by song fish","SONG FISH DEALER PTE LTD","50 JURONG GATEWAY ROAD #B1-43,#B1-44, JEM S(608549)","608549",1.3325523295069,103.743262234833
"SW17728C000","U stars megamart","U STARS PTE. LTD.","817 KEAT HONG LINK #01-14, MULTI STOREY CAR PARK S(680817)","680817",1.37754385007462,103.749700036701
"SW17E56V000","Cold storage","COLD STORAGE SINGAPORE (1983) PTE LTD","1 FUSIONOPOLIS WAY #B2-03, CONNEXIS S(138632)","138632",1.29943736719293,103.787576666868
"SW18581V000","The qualitymart depot","THE QUALITYMART DEPOT PTE. LTD.","180 DEPOT ROAD #01-04, INTERLACE, THE S(109684)","109684",1.28220135422008,103.803023756097
"SW18715E000","Seoul butchery","SEOUL BUTCHERY PTE. LTD.","13 YUK TONG AVENUE, CHUN TIN COURT S(596318)","596318",1.34207496392367,103.774632794309
"SW18A30L000","Sheng siong supermarket","SHENG SIONG SUPERMARKET PTE LTD","440 BUKIT BATOK WEST AVENUE 8 #01-10, MULTI STOREY CAR PARK S(650440)","650440",1.35572308109486,103.739303105372
"SW18A40J000","Giant express","COLD STORAGE SINGAPORE (1983) PTE LTD","35 STUDENTS WALK, NTU CANTEEN 2 S(639548)","639548",1.34842266576961,103.685434201207
"SW18F69X000","Sheng siong supermarket","SHENG SIONG SUPERMARKET PTE LTD","451 BUKIT BATOK WEST AVENUE 6 #01-10, MULTI STOREY CAR PARK S(650451)","650451",1.35303717968525,103.743942567711
"SW19707V000","Balu supermarket","BALU SUPER MARKET PTE. LTD.","14 TUAS AVENUE 1 #01-01, JTC SPACE @ TUAS S(639499)","639499",1.32148166449156,103.660952805443
"SW19869J000","Sheng siong supermarket","SHENG SIONG SUPERMARKET PTE LTD","292 BUKIT BATOK EAST AVENUE 6 #01-02, MULTI STOREY CAR PARK S(650292)","650292",1.34447136304156,103.755394615486
"SW19934B000","The seafood market place by song fish","SONG FISH DEALER PTE LTD","1 HARBOURFRONT WALK #B2-23A, VIVO CITY S(098585)","098585",1.26434458658544,103.822476140505
"SW19A15B000","Nihi mini mart","NIHI PTE. LTD.","8 TECH PARK CRESCENT #01-00, S(638124)","638124",1.31097333406367,103.629405094456
"SW19G50C000","Lamiah minimart","LAMIAH ENTERPRISE PTE. LTD.","40 TUAS VIEW SQUARE #01-03, LANDBASE INDUSTRIAL BUILDING S(637779)","637779",1.30047659570156,103.628812327397
"W02065N000","Cold storage","COLD STORAGE SINGAPORE (1983) PTE LTD","101 THOMSON ROAD #B1-52, UNITED SQUARE S(307591)","307591",1.31742800767635,103.843670754851
"W02066L000","Cold storage","COLD STORAGE SINGAPORE (1983) PTE LTD","211 HOLLAND AVENUE #01-05, HOLLAND ROAD SHOPPING CENTRE S(278967)","278967",1.31025542158588,103.795350441035
"W02068J000","Cold storage","COLD STORAGE SINGAPORE (1983) PTE LTD","1 KIM SENG PROMENADE #B1-139,#B1-140,#B1-141, GREAT WORLD CITY S(237994)","237994",1.2934759620704,103.831975865363
"W02070V000","Cold storage","COLD STORAGE SINGAPORE (1983) PTE LTD","290 ORCHARD ROAD #B1-14/15, THE PARAGON S(238859)","238859",1.30371084737898,103.83526664484
"W02071X000","Cold storage","COLD STORAGE SINGAPORE (1983) PTE LTD","391A ORCHARD ROAD #B2-01, NGEE ANN CITY TOWER A S(238873)","238873",1.30242417189411,103.834676124723
"W02072P000","Fairprice","NTUC FAIRPRICE CO-OPERATIVE LTD","302 TIONG BAHRU ROAD #B1-01, TIONG BAHRU PLAZA S(168732)","168732",1.28633177192832,103.827550771424
"W02073N000","Cold storage","COLD STORAGE SINGAPORE (1983) PTE LTD","163 TANGLIN ROAD #B1-02/03, TANGLIN MALL S(247933)","247933",1.30485342102105,103.823883490852
"W02074L000","Cold storage","COLD STORAGE SINGAPORE (1983) PTE LTD","238 THOMSON ROAD #01-27,#01-28,#01-29,#01-30,#01-82,#01-83, NOVENA SQUARE S(307683)","307683",1.32021100706836,103.843656761867
"W02075K000","Cold storage","COLD STORAGE SINGAPORE (1983) PTE LTD","230 VICTORIA STREET #B1-16, BUGIS JUNCTION S(188024)","188024",1.29981639897451,103.855923558787
"W02076J000","Fish supplier","HONG HENG SENG","5 BANDA STREET #03-92, S(050005)","050005",1.28119737026913,103.843437320613
"W02078C000","Isetan","ISETAN (SINGAPORE) LIMITED","350 ORCHARD ROAD #B1-00, SHAW HOUSE S(238868)","238868",1.30580981580562,103.831507365654
"W02080P000","Market place","COLD STORAGE SINGAPORE (1983) PTE LTD","252 NORTH BRIDGE ROAD #B1-01, RAFFLES CITY SHOPPING CENTRE S(179103)","179103",1.29376028134073,103.852768324281
"W02081N000","Thai supermarket","Loh Nyen Yiu","5001 BEACH ROAD #02-64, GOLDEN MILE COMPLEX S(199588)","199588",1.3027512163519,103.865163649543
"W02083K000","Fairprice","NTUC FAIRPRICE CO-OPERATIVE LTD","166 BUKIT MERAH CENTRAL #01-3527, BUKIT MERAH AREA OFFICE S(150166) 02-3531","150166",1.28309262574973,103.817667202598
"W02086C000","Fairprice","NTUC FAIRPRICE CO-OPERATIVE LTD","50 HAVELOCK ROAD #01-755, S(160050)","160050",1.2897647546758,103.826802915076
"W02088A000","Cold storage","COLD STORAGE SINGAPORE (1983) PTE LTD","68 ORCHARD ROAD #B2-15/16, PLAZA SINGAPURA S(238839)","238839",1.30083413030923,103.845072743164
"W02092J000","Fairprice","NTUC FAIRPRICE CO-OPERATIVE LTD","5 TANJONG PAGAR PLAZA #01-01, S(081005)","081005",1.27624052001347,103.843006115698
"W02096A000","Cold storage","COLD STORAGE SINGAPORE (1983) PTE LTD","81 CLEMENCEAU AVENUE #02-18, S(239917)","239917",1.29225958503296,103.842561023913
"W02140C000","Hao mart","HAO MART PTE. LTD.","200 TURF CLUB ROAD #01-01, THE GRANDSTAND S(287994)","287994",1.33759373277131,103.793707423659
"W02239E000","Fairprice","NTUC FAIRPRICE CO-OPERATIVE LTD","131 KILLINEY ROAD #01-01,02, ORCHARD GRAND COURT S(239571)","239571",1.29727531417916,103.838533924757
"W02332N000","Sheng siong supermarket","SHENG SIONG SUPERMARKET PTE LTD","52 CHIN SWEE ROAD #01-25, S(160052)","160052",1.28708278284998,103.841580109275
"W03142N000","Mustafa singapore","MUSTAFA HOLDINGS PTE LTD","147 SYED ALWI ROAD, S(207706)","207706",1.30975299910627,103.855701473372
"W70029L000","Fairprice","NTUC FAIRPRICE CO-OPERATIVE LTD","170 STIRLING ROAD #01-1147, S(140170)","140170",1.29091128182876,103.803120797076
"W72014K000","Giant","COLD STORAGE SINGAPORE (1983) PTE LTD","86 REDHILL CLOSE #01-610, S(150086)","150086",1.2869200622963,103.818673592235
"W74072X000","Giant","COLD STORAGE SINGAPORE (1983) PTE LTD","8 TELOK BLANGAH CRESCENT #01-171, S(090008)","090008",1.27779539068994,103.819341303524
"W89166E000","Cold storage","COLD STORAGE SINGAPORE (1983) PTE LTD","176 ORCHARD ROAD #B1-09/11, CENTREPOINT SHOPPING COMPLEX S(238843)","238843",1.30151446722773,103.840054426935
"W90084A000","Fairprice","NTUC FAIRPRICE CO-OPERATIVE LTD","133 NEW BRIDGE ROAD #B1-01, CHINATOWN POINT S(059413)","059413",1.28499882847401,103.844697081142
